City_ID,City,Lat,Lng,Max Temp,Humidity,Cloudiness,Wind Speed,Country,Date
0,georgetown,5.4112,100.3354,26.96,89,20,2.06,MY,2024-04-08 15:35:50
1,chandbali,20.7833,86.7667,29.73,33,100,2.7,IN,2024-04-08 15:36:37
2,anadyr,64.75,177.4833,-17.72,78,0,1.0,RU,2024-04-08 15:33:23
3,atafu village,-8.5421,-172.5159,29.47,75,16,4.41,TK,2024-04-08 15:36:37
4,rio grande,-32.035,-52.0986,24.06,74,39,5.18,BR,2024-04-08 15:36:33
5,ushuaia,-54.8,-68.3,2.79,80,75,6.69,AR,2024-04-08 15:36:37
6,adamstown,-25.066,-130.1015,23.72,87,42,3.78,PN,2024-04-08 15:36:37
7,ilulissat,69.2167,-51.1,-5.99,68,20,1.54,GL,2024-04-08 15:36:37
8,nova sintra,14.8667,-24.7167,22.76,76,1,13.39,CV,2024-04-08 15:36:38
9,zyryanskoye,56.8306,86.6258,1.25,82,98,2.79,RU,2024-04-08 15:36:38
10,blackmans bay,-43.0167,147.3167,8.07,78,17,4.37,AU,2024-04-08 15:36:38
11,port-aux-francais,-49.35,70.2167,6.87,87,49,13.13,TF,2024-04-08 15:36:38
12,mchinji,-13.7984,32.8802,19.71,91,52,1.8,MW,2024-04-08 15:36:38
13,puerto natales,-51.7236,-72.4875,4.25,70,20,4.63,CL,2024-04-08 15:36:38
14,petropavlovsk-kamchatsky,53.0452,158.6483,2.65,82,75,1.0,RU,2024-04-08 15:26:51
15,campbell river,50.0163,-125.2446,8.03,100,100,6.69,CA,2024-04-08 15:36:38
16,kralendijk,12.15,-68.2667,30.99,66,75,8.75,BQ,2024-04-08 15:31:42
17,talnakh,69.4865,88.3972,-7.66,93,100,5.03,RU,2024-04-08 15:36:38
18,port mathurin,-19.6833,63.4167,26.88,82,14,5.15,MU,2024-04-08 15:36:39
19,iqaluit,63.7506,-68.5145,-15.15,65,20,9.26,CA,2024-04-08 15:36:39
20,whitehorse,60.7161,-135.0538,-0.57,68,100,7.72,CA,2024-04-08 15:35:42
21,cadale,2.7603,46.3222,29.31,77,75,5.66,SO,2024-04-08 15:36:39
22,tofol,5.3248,163.0078,27.36,78,100,8.49,FM,2024-04-08 15:36:39
23,papatowai,-46.5619,169.4708,12.16,73,62,2.87,NZ,2024-04-08 15:36:39
24,bredasdorp,-34.5322,20.0403,16.81,95,100,8.91,ZA,2024-04-08 15:36:39
25,leh,34.1667,77.5833,-12.2,47,0,3.22,IN,2024-04-08 15:36:39
26,olonkinbyen,70.9221,-8.7187,-3.36,71,100,8.79,SJ,2024-04-08 15:36:39
27,fort bragg,35.139,-79.006,22.12,50,0,4.12,US,2024-04-08 15:35:57
28,udachny,66.4167,112.4,-12.53,81,23,3.31,RU,2024-04-08 15:36:40
29,tazovsky,67.4667,78.7,-12.81,96,53,4.68,RU,2024-04-08 15:36:40
30,hamilton,39.1834,-84.5333,22.1,61,0,4.63,US,2024-04-08 15:35:56
31,uturoa,-16.7333,-151.4333,28.92,77,99,4.58,PF,2024-04-08 15:36:40
32,bikenibeu village,1.3673,173.1241,27.98,83,75,5.66,KI,2024-04-08 15:36:40
33,maintirano,-18.0667,44.0167,28.21,73,44,3.46,MG,2024-04-08 15:36:40
34,sondrio,46.169,9.8692,24.95,50,56,2.7,IT,2024-04-08 15:36:40
35,baker city,44.7749,-117.8344,4.77,75,0,0.0,US,2024-04-08 15:33:37
36,bengkulu,-3.8004,102.2655,26.13,90,100,1.78,ID,2024-04-08 15:36:41
37,margaret river,-33.95,115.0667,14.12,66,0,5.64,AU,2024-04-08 15:36:41
38,isafjordur,66.0755,-23.124,0.02,64,75,8.75,IS,2024-04-08 15:36:41
39,piotrkow trybunalski,51.4055,19.7032,26.05,52,95,4.12,PL,2024-04-08 15:36:41
40,oranjemund,-28.55,16.4333,16.26,81,54,3.64,NA,2024-04-08 15:36:41
41,erenhot,43.6475,111.9767,10.51,54,98,4.81,CN,2024-04-08 15:36:41
42,badger,64.8,-147.5333,-3.05,80,75,2.57,US,2024-04-08 15:36:41
43,bethel,41.3712,-73.414,16.97,34,0,1.54,US,2024-04-08 15:36:41
44,arkhangel'sk,64.5401,40.5433,-0.94,80,75,2.0,RU,2024-04-08 15:35:14
45,jamestown,42.097,-79.2353,11.51,39,100,3.6,US,2024-04-08 15:34:10
46,tabuk,17.4189,121.4443,24.68,81,44,1.85,PH,2024-04-08 15:36:42
47,port elizabeth,-33.918,25.5701,20.61,85,42,1.79,ZA,2024-04-08 15:36:42
48,grytviken,-54.2811,-36.5092,2.69,85,91,4.12,GS,2024-04-08 15:36:42
49,qaqortoq,60.7167,-46.0333,-1.52,88,100,1.98,GL,2024-04-08 15:36:42
50,enewetak,11.3474,162.3373,27.46,78,100,9.38,MH,2024-04-08 15:36:42
51,invercargill,-46.4,168.35,12.74,73,90,2.83,NZ,2024-04-08 15:36:42
52,kingston,17.997,-76.7936,31.76,66,20,3.09,JM,2024-04-08 15:32:08
53,fort frances,48.5999,-93.4003,5.65,70,100,4.12,CA,2024-04-08 15:36:43
54,laja,-37.2667,-72.7,18.16,43,38,0.55,CL,2024-04-08 15:36:43
55,albany,42.6001,-73.9662,15.37,42,90,0.89,US,2024-04-08 15:36:43
56,west island,-12.1568,96.8225,27.99,78,40,5.66,CC,2024-04-08 15:36:43
57,aldama,22.9167,-98.0667,28.77,52,54,3.93,MX,2024-04-08 15:36:43
58,ketchikan,55.3422,-131.6461,5.75,81,100,4.12,US,2024-04-08 15:33:17
59,las tablas,7.7667,-80.2833,30.65,99,99,6.44,PA,2024-04-08 15:36:43
60,saint-pierre,-21.3393,55.4781,25.82,78,44,3.6,RE,2024-04-08 15:36:43
61,longyearbyen,78.2186,15.6401,-14.09,72,20,1.54,SJ,2024-04-08 15:35:11
62,vila velha,-20.3297,-40.2925,29.98,80,40,3.6,BR,2024-04-08 15:36:04
63,keflavik,64.0049,-22.5624,5.95,60,0,11.83,IS,2024-04-08 15:36:44
64,edinburgh of the seven seas,-37.0676,-12.3116,18.56,92,100,9.0,SH,2024-04-08 15:36:44
65,puerto ayora,-0.7393,-90.3518,29.98,91,34,2.68,EC,2024-04-08 15:36:44
66,waitangi,-43.9535,-176.5597,12.68,83,76,0.89,NZ,2024-04-08 15:36:44
67,tara,56.8944,74.371,1.2,100,100,1.64,RU,2024-04-08 15:36:44
68,cabo san lucas,22.8909,-109.9124,22.09,57,40,2.57,MX,2024-04-08 15:36:44
69,sitangkai,4.6628,119.3928,28.28,77,34,2.99,PH,2024-04-08 15:36:44
70,college,64.8569,-147.8028,-3.01,75,75,2.57,US,2024-04-08 15:35:50
71,tashtagol,52.7657,87.8894,4.64,94,48,0.92,RU,2024-04-08 15:36:44
72,marsassoum,12.8275,-15.9806,40.05,12,23,3.53,SN,2024-04-08 15:36:45
73,as sulayyil,20.4607,45.5779,35.14,25,59,0.75,SA,2024-04-08 15:36:45
74,callao,-12.0667,-77.15,23.16,83,0,3.09,PE,2024-04-08 15:36:33
75,sudzha,51.1976,35.2726,17.12,55,87,2.54,RU,2024-04-08 15:36:45
76,tolanaro,-25.0319,46.9987,21.04,94,75,3.09,MG,2024-04-08 15:36:45
77,kirakira,-10.4544,161.9205,26.68,85,100,2.53,SB,2024-04-08 15:36:45
78,dunedin,-45.8742,170.5036,15.74,61,100,3.76,NZ,2024-04-08 15:36:24
79,punta arenas,-53.15,-70.9167,4.06,65,0,8.75,CL,2024-04-08 15:36:05
80,avarua,-21.2078,-159.775,26.03,89,75,2.57,CK,2024-04-08 15:36:46
81,vadso,70.0744,29.7487,-2.51,86,75,6.69,NO,2024-04-08 15:36:46
82,atherton,53.5237,-2.4935,14.6,76,100,2.24,GB,2024-04-08 15:36:46
83,beyneu,45.3167,55.2,15.21,43,8,3.93,KZ,2024-04-08 15:36:46
84,bilibino,68.0546,166.4372,-24.39,99,73,1.74,RU,2024-04-08 15:36:46
85,onega,63.9061,38.1404,-0.37,92,99,1.92,RU,2024-04-08 15:36:46
86,norcasia,5.5778,-74.8852,29.86,51,36,1.4,CO,2024-04-08 15:36:46
87,malango,-2.9627,119.9001,20.48,100,100,0.4,ID,2024-04-08 15:36:46
88,bay city,43.5945,-83.8889,15.23,59,0,5.14,US,2024-04-08 15:36:46
89,akrehamn,59.2667,5.1833,11.23,71,75,4.63,NO,2024-04-08 15:36:47
90,baghlan,35.75,69.0,13.8,51,30,0.59,AF,2024-04-08 15:36:47
91,happy valley-goose bay,53.3168,-60.3315,1.17,64,100,5.14,CA,2024-04-08 15:36:47
92,tiksi,71.6872,128.8694,-9.38,80,100,10.37,RU,2024-04-08 15:36:47
93,hawaiian paradise park,19.5933,-154.9731,19.93,94,100,2.06,US,2024-04-08 15:36:47
94,vilyuchinsk,52.9306,158.4028,3.47,98,86,0.18,RU,2024-04-08 15:36:47
95,howard springs,-12.497,131.047,27.68,88,75,2.61,AU,2024-04-08 15:36:47
96,sanibel,26.449,-82.0223,26.12,56,14,3.13,US,2024-04-08 15:35:23
97,wailua homesteads,22.0669,-159.378,21.44,86,20,8.75,US,2024-04-08 15:36:47
98,saint-joseph,-21.3667,55.6167,25.21,87,51,2.24,RE,2024-04-08 15:36:48
99,yinchuan,38.4681,106.2731,16.02,39,51,1.73,CN,2024-04-08 15:36:48
100,brisas barra de suchiate,14.55,-92.2167,30.1,60,28,3.72,MX,2024-04-08 15:36:48
101,melekeok village,7.4957,134.6367,26.31,94,75,3.09,PW,2024-04-08 15:36:48
102,ico,-6.4011,-38.8622,33.96,47,77,0.23,BR,2024-04-08 15:36:48
103,susuman,62.7833,148.1667,-10.01,91,100,1.34,RU,2024-04-08 15:36:49
104,haiku-pauwela,20.9219,-156.3051,21.69,79,0,6.17,US,2024-04-08 15:36:49
105,iskateley,67.6803,53.1512,-13.32,92,14,2.68,RU,2024-04-08 15:36:49
106,saipan,15.1355,145.701,27.39,83,40,6.17,MP,2024-04-08 15:36:49
107,lazaro cardenas,17.9583,-102.2,28.12,51,0,1.66,MX,2024-04-08 15:34:52
108,remire-montjoly,4.9167,-52.2667,31.02,66,75,5.66,GF,2024-04-08 15:36:50
109,moab,38.5733,-109.5498,9.16,29,68,4.15,US,2024-04-08 15:32:01
110,changzhou,31.7833,119.9667,9.26,94,79,1.82,CN,2024-04-08 15:36:50
111,klyuchi,52.2667,79.1667,12.4,57,100,1.99,RU,2024-04-08 15:36:50
112,alofi,-19.0595,-169.9187,24.94,94,75,5.66,NU,2024-04-08 15:36:50
113,kununurra,-15.7667,128.7333,21.99,88,83,0.0,AU,2024-04-08 15:34:04
114,crane,31.3974,-102.3501,20.25,51,12,5.92,US,2024-04-08 15:32:20
115,rumoi,43.9344,141.6428,5.41,90,100,3.53,JP,2024-04-08 15:36:50
116,kpandae,8.4689,-0.0113,38.57,29,100,1.44,GH,2024-04-08 15:36:51
117,nadym,65.5333,72.5167,-8.91,87,96,4.58,RU,2024-04-08 15:36:51
118,gamba,-2.65,10.0,24.85,90,100,1.53,GA,2024-04-08 15:36:51
119,ligaya,12.6599,120.8923,26.07,65,77,1.74,PH,2024-04-08 15:36:51
120,hammerfest,70.6634,23.6821,-2.75,80,75,5.14,NO,2024-04-08 15:32:33
121,selfoss,63.9331,-20.9971,4.47,46,91,9.94,IS,2024-04-08 15:36:51
122,titao,13.7667,-2.0667,42.02,5,100,0.86,BF,2024-04-08 15:36:52
123,ushtobe,45.2514,77.9838,17.62,32,100,3.51,KZ,2024-04-08 15:36:52
124,nemuro,43.3236,145.575,4.88,100,100,6.03,JP,2024-04-08 15:36:52
125,alice springs,-23.7,133.8833,22.34,28,96,5.81,AU,2024-04-08 15:33:11
126,kodiak,57.79,-152.4072,-1.27,86,40,0.0,US,2024-04-08 15:33:19
127,diego de almagro,-26.3667,-70.05,26.22,24,0,2.88,CL,2024-04-08 15:36:52
128,hakui,36.8833,136.7833,13.45,97,100,3.5,JP,2024-04-08 15:36:52
129,baise city,23.8997,106.6133,25.75,99,49,1.19,CN,2024-04-08 15:36:52
130,kerikeri,-35.2268,173.9474,15.51,93,37,2.03,NZ,2024-04-08 15:36:27
131,carnarvon,-24.8667,113.6333,27.16,31,4,5.28,AU,2024-04-08 15:36:52
132,la sarre,48.8002,-79.1996,6.87,75,66,1.46,CA,2024-04-08 15:33:43
133,yellowknife,62.456,-114.3525,-0.33,85,75,3.09,CA,2024-04-08 15:35:44
134,outes,42.8619,-8.9018,13.65,67,30,1.34,ES,2024-04-08 15:36:53
135,kerbakhiar,40.1067,46.0383,2.11,98,100,1.69,AZ,2024-04-08 15:36:53
136,sorong,-0.8833,131.25,25.9,84,100,1.91,ID,2024-04-08 15:36:53
137,kariba,-16.5167,28.8,29.83,51,0,1.03,ZW,2024-04-08 15:36:53
138,novyy urgal,51.0736,132.5642,-6.04,71,62,1.28,RU,2024-04-08 15:36:53
139,cosamaloapan,18.3667,-95.8,35.33,39,6,0.18,MX,2024-04-08 15:36:53
140,huarmey,-10.0681,-78.1522,24.71,76,53,3.44,PE,2024-04-08 15:36:54
141,okhotsk,59.3833,143.3,-1.43,98,100,1.91,RU,2024-04-08 15:36:54
142,petukhovo,55.0692,67.9019,3.09,96,100,3.17,RU,2024-04-08 15:36:54
143,tarakan,3.3,117.6333,26.72,89,40,1.03,ID,2024-04-08 15:36:54
144,yuzhno-kurilsk,44.0306,145.8556,6.32,97,100,3.16,RU,2024-04-08 15:36:54
145,lihue,21.9789,-159.3672,21.77,82,20,8.75,US,2024-04-08 15:36:54
146,saint-mandrier-sur-mer,43.078,5.929,25.24,48,89,5.14,FR,2024-04-08 15:36:54
147,rawson,-43.3002,-65.1023,19.82,59,100,3.75,AR,2024-04-08 15:36:54
148,santiago de cao,-7.9589,-79.2392,22.07,83,40,2.57,PE,2024-04-08 15:36:54
149,new norfolk,-42.7826,147.0587,8.73,74,76,1.61,AU,2024-04-08 15:36:55
150,murzuq,25.9155,13.9184,30.2,5,2,3.56,LY,2024-04-08 15:36:55
151,marsa alam,25.0757,34.8918,23.66,52,0,4.6,EG,2024-04-08 15:34:35
152,kilindoni,-7.9139,39.6668,25.95,85,100,4.45,TZ,2024-04-08 15:36:55
153,mahina,-17.5065,-149.489,25.87,83,20,2.06,PF,2024-04-08 15:36:55
154,krasnoyarskaya,47.6501,42.0443,18.3,46,24,2.63,RU,2024-04-08 15:36:55
155,afaahiti,-17.75,-149.2833,24.93,85,100,5.03,PF,2024-04-08 15:36:55
156,muravlenko,63.7898,74.523,-5.03,94,100,4.43,RU,2024-04-08 15:36:55
157,san antonio de pale,-1.4014,5.6325,27.66,76,100,3.01,GQ,2024-04-08 15:36:56
158,campos belos,-13.0367,-46.7717,30.4,50,43,1.72,BR,2024-04-08 15:36:56
159,mitsamiouli,-11.3847,43.2844,28.59,77,99,1.76,KM,2024-04-08 15:36:56
160,taulaga,-11.0553,-171.0883,29.41,76,29,5.3,AS,2024-04-08 15:36:56
161,gadzhiyevo,69.2551,33.3362,-3.47,93,100,8.28,RU,2024-04-08 15:36:56
162,hovd,48.0056,91.6419,6.41,66,97,1.25,MN,2024-04-08 15:36:56
163,chak two hundred forty-nine thal development authority,31.1796,71.2095,30.36,11,95,4.42,PK,2024-04-08 15:36:56
164,broken hill,-31.95,141.4333,14.51,71,3,8.37,AU,2024-04-08 15:36:56
165,rundu,-17.9333,19.7667,26.33,54,70,1.75,NA,2024-04-08 15:36:56
166,vicam,27.6333,-110.2833,21.63,29,0,2.31,MX,2024-04-08 15:36:56
167,ribeira grande,38.5167,-28.7,17.22,94,75,4.92,PT,2024-04-08 15:36:57
168,lebu,-37.6167,-73.65,16.83,82,81,1.28,CL,2024-04-08 15:32:31
169,kiunga,-6.1219,141.2906,23.87,99,100,0.52,PG,2024-04-08 15:36:57
170,labrador city,52.9463,-66.9114,0.66,50,100,8.23,CA,2024-04-08 15:36:57
171,thompson,55.7435,-97.8558,7.09,42,20,1.03,CA,2024-04-08 15:36:57
172,colchani,-20.3,-66.9333,17.74,41,90,5.29,BO,2024-04-08 15:36:57
173,arfoud,31.4348,-4.2375,33.84,7,1,4.88,MA,2024-04-08 15:36:57
174,saudarkrokur,65.7461,-19.6394,-0.61,86,72,7.47,IS,2024-04-08 15:36:57
175,grand forks,47.9417,-97.4337,5.38,87,100,3.6,US,2024-04-08 15:36:43
176,vangaindrano,-23.35,47.6,23.28,92,100,3.81,MG,2024-04-08 15:36:57
177,lompoc,34.6391,-120.4579,15.47,67,0,4.63,US,2024-04-08 15:36:58
178,revda,56.801,59.9303,0.32,83,76,4.1,RU,2024-04-08 15:33:05
179,la ronge,55.1001,-105.2842,6.14,70,100,1.54,CA,2024-04-08 15:36:58
180,lingyuan,41.24,119.4011,2.98,20,7,0.69,CN,2024-04-08 15:36:58
181,prince rupert,54.3161,-130.3201,5.83,85,100,12.86,CA,2024-04-08 15:35:29
182,sitka,57.0531,-135.33,3.94,81,75,6.17,US,2024-04-08 15:32:10
183,san luis de la loma,17.2706,-100.8939,29.54,45,2,2.24,MX,2024-04-08 15:36:58
184,vernon,50.2581,-119.2691,6.8,62,100,3.09,CA,2024-04-08 15:32:08
185,polyarnyy,69.1989,33.4478,-3.61,92,100,8.37,RU,2024-04-08 15:36:58
186,kavieng,-2.5744,150.7967,26.54,86,100,3.6,PG,2024-04-08 15:36:59
187,duminichi,53.9345,35.1099,14.29,74,100,2.7,RU,2024-04-08 15:36:59
188,lucena,13.9314,121.6172,25.2,91,33,3.06,PH,2024-04-08 15:36:59
189,portland,45.5234,-122.6762,9.18,87,100,2.06,US,2024-04-08 15:34:44
190,balsas,-7.5325,-46.0356,31.82,56,90,3.51,BR,2024-04-08 15:34:22
191,izberbash,42.5696,47.8645,10.03,78,99,4.51,RU,2024-04-08 15:36:59
192,hermanus,-34.4187,19.2345,16.56,94,100,8.68,ZA,2024-04-08 15:36:59
193,cannonvale,-20.2833,148.7,25.66,85,88,1.73,AU,2024-04-08 15:36:59
194,karratha,-20.7377,116.8463,29.4,30,99,7.91,AU,2024-04-08 15:36:59
195,vorgashor,67.5833,63.95,-12.89,93,89,3.93,RU,2024-04-08 15:37:00
196,pabrade,55.0,25.7833,19.58,75,100,1.92,LT,2024-04-08 15:37:00
197,pisco,-13.7,-76.2167,24.03,78,40,3.6,PE,2024-04-08 15:34:11
198,patos,-7.0244,-37.28,34.7,35,7,1.97,BR,2024-04-08 15:37:00
199,puerto baquerizo moreno,-0.9,-89.6,28.55,79,20,5.14,EC,2024-04-08 15:32:17
200,walvis bay,-22.9575,14.5053,23.53,53,0,9.77,NA,2024-04-08 15:37:00
201,watsa,3.0372,29.5355,23.23,72,79,1.45,CD,2024-04-08 15:37:00
202,champerico,14.3,-91.9167,31.3,61,20,3.95,GT,2024-04-08 15:37:00
203,olyokminsk,60.3736,120.4264,-4.89,96,100,0.3,RU,2024-04-08 15:37:00
204,toliara,-23.35,43.6667,25.52,66,18,8.96,MG,2024-04-08 15:37:01
205,st. john's,47.5649,-52.7093,0.71,94,100,9.83,CA,2024-04-08 15:34:59
206,san cristobal,7.7669,-72.225,28.1,45,100,5.01,VE,2024-04-08 15:35:46
207,berdigestyakh,62.0989,126.6992,-7.29,97,100,1.07,RU,2024-04-08 15:37:01
208,i-n-salah,27.1935,2.4607,40.12,4,13,5.5,DZ,2024-04-08 15:37:01
209,brooks,50.5834,-111.8851,5.02,73,23,1.03,CA,2024-04-08 15:32:44
210,bayanhongor,46.7167,100.1167,-1.44,83,82,1.32,MN,2024-04-08 15:37:01
211,okha,53.5739,142.9478,-4.86,94,34,1.79,RU,2024-04-08 15:37:01
212,nuuk,64.1835,-51.7216,-1.66,64,20,2.57,GL,2024-04-08 15:35:00
213,belmonte,-15.8631,-38.8828,29.45,61,67,4.23,BR,2024-04-08 15:37:01
214,weno,7.4515,151.8468,27.97,89,100,3.09,FM,2024-04-08 15:37:02
215,gubkinskiy,64.434,76.5026,-5.5,90,100,4.16,RU,2024-04-08 15:37:02
216,pezenas,43.4595,3.4238,18.86,73,0,7.72,FR,2024-04-08 15:37:02
217,kidal,18.4411,1.4078,39.69,6,66,8.99,ML,2024-04-08 15:37:02
218,orkney,-26.9802,26.6727,17.44,85,98,6.6,ZA,2024-04-08 15:37:02
219,arizona city,32.7559,-111.671,16.67,38,100,2.09,US,2024-04-08 15:37:02
220,veinticinco de mayo,-35.4323,-60.1727,24.99,59,4,2.24,AR,2024-04-08 15:37:02
221,malvan,16.0667,73.4667,27.5,77,71,6.12,IN,2024-04-08 15:37:02
222,tura,25.5198,90.2201,23.61,33,99,1.31,IN,2024-04-08 15:37:03
223,tanabe,33.7333,135.3667,17.85,98,100,4.01,JP,2024-04-08 15:37:03
224,petite riviere,-20.1894,57.4453,26.86,94,58,1.37,MU,2024-04-08 15:37:03
225,san patricio,28.017,-97.5169,24.05,77,95,5.35,US,2024-04-08 15:37:03
226,tome acu,-2.4189,-48.1522,31.64,60,94,1.14,BR,2024-04-08 15:37:03
227,kailua-kona,19.6406,-155.9956,22.98,80,0,1.54,US,2024-04-08 15:36:33
228,hobyo,5.3505,48.5268,29.15,74,71,6.22,SO,2024-04-08 15:37:03
229,ocean shores,46.9737,-124.1563,8.34,92,100,6.17,US,2024-04-08 15:37:04
230,tsiombe,-25.3,45.4833,21.83,67,100,5.89,MG,2024-04-08 15:37:04
231,bukama,-9.2,25.85,23.08,96,99,1.79,CD,2024-04-08 15:37:04
232,poronaysk,49.2167,143.1167,1.32,83,100,4.0,RU,2024-04-08 15:37:04
233,khabarovsk,48.4808,135.0928,0.26,61,20,16.99,RU,2024-04-08 15:37:04
234,vostochnyy,55.8167,37.8667,16.96,71,98,2.37,RU,2024-04-08 15:37:04
235,wellington,-41.2866,174.7756,16.81,85,75,7.72,NZ,2024-04-08 15:35:48
236,darovskoy,58.77,47.9564,5.68,93,100,4.21,RU,2024-04-08 15:37:05
237,cockburn town,21.4612,-71.1419,24.38,68,14,6.69,TC,2024-04-08 15:32:26
238,najera,42.4244,-2.734,12.4,71,86,5.66,ES,2024-04-08 15:37:05
239,zapolyarnyy,69.4154,30.8136,-3.4,96,100,5.69,RU,2024-04-08 15:37:05
240,arraial do cabo,-22.9661,-42.0278,28.98,69,0,7.72,BR,2024-04-08 15:32:09
241,stanley,54.868,-1.6985,14.77,74,40,4.12,GB,2024-04-08 15:36:11
242,aykhal,66.0,111.5,-14.82,87,28,5.1,RU,2024-04-08 15:37:05
243,mili,6.0815,171.735,27.89,85,94,9.66,MH,2024-04-08 15:37:05
244,salinopolis,-0.6136,-47.3561,27.57,85,58,3.9,BR,2024-04-08 15:37:06
245,port alfred,-33.5906,26.891,18.99,92,97,4.2,ZA,2024-04-08 15:37:06
246,auki,-8.7676,160.7034,25.6,91,100,1.7,SB,2024-04-08 15:37:06
247,brookings,44.3114,-96.7984,4.47,97,100,5.14,US,2024-04-08 15:35:50
248,atyrau,47.1167,51.8833,14.01,67,0,5.0,KZ,2024-04-08 15:37:06
249,arar,30.9753,41.0381,30.01,9,0,4.12,SA,2024-04-08 15:37:06
250,umm ruwaba,12.9061,31.2158,32.67,7,55,5.02,SD,2024-04-08 15:37:06
251,nyagan,62.1406,65.3936,-1.39,77,100,1.08,RU,2024-04-08 15:37:06
252,fale old settlement,-9.3852,-171.2468,29.46,76,32,5.1,TK,2024-04-08 15:37:06
253,chonchi,-42.6128,-73.8092,10.56,84,82,2.94,CL,2024-04-08 15:37:07
254,sinabang,2.4803,96.3801,27.54,84,100,1.38,ID,2024-04-08 15:37:07
255,ust-nera,64.5667,143.2,-16.6,100,94,1.34,RU,2024-04-08 15:37:07
256,minas de marcona,-15.2119,-75.1103,22.97,58,99,4.53,PE,2024-04-08 15:37:07
257,troitsko-pechorsk,62.7084,56.1964,-2.95,73,100,2.68,RU,2024-04-08 15:37:07
258,port douglas,-16.4833,145.4667,26.23,82,100,0.86,AU,2024-04-08 15:35:36
259,tanque verde,32.2517,-110.7373,16.94,31,0,3.58,US,2024-04-08 15:37:08
260,ingeniero jacobacci,-41.3427,-69.5448,17.26,46,90,12.84,AR,2024-04-08 15:37:08
261,ulladulla,-35.35,150.4667,15.61,81,92,2.01,AU,2024-04-08 15:37:08
262,northam,51.0333,-4.2167,13.12,90,100,9.07,GB,2024-04-08 15:37:08
263,port saint john's,-31.6229,29.5448,21.37,90,100,1.09,ZA,2024-04-08 15:34:18
264,port lincoln,-34.7333,135.8667,14.28,62,93,6.95,AU,2024-04-08 15:37:08
265,newman,37.3138,-121.0208,10.64,85,6,2.77,US,2024-04-08 15:34:35
266,richards bay,-28.783,32.0377,22.91,74,79,5.76,ZA,2024-04-08 15:37:08
267,ancud,-41.8697,-73.8203,12.65,62,46,3.25,CL,2024-04-08 15:37:08
268,tinajo,29.0788,-13.7081,22.49,60,40,11.83,ES,2024-04-08 15:37:08
269,usinsk,65.9939,57.5281,-10.52,82,94,4.47,RU,2024-04-08 15:37:09
270,bougouni,11.417,-7.479,37.72,27,62,1.63,ML,2024-04-08 15:37:09
271,kabare,-2.4683,28.8242,18.58,93,72,0.64,CD,2024-04-08 15:37:09
272,es castell,39.8795,4.2854,19.38,82,0,6.69,ES,2024-04-08 15:37:09
273,xunchang,28.4543,104.715,17.2,73,100,0.81,CN,2024-04-08 15:37:09
274,ugoofaaru,5.6667,73.0,29.35,70,46,1.37,MV,2024-04-08 15:37:09
275,manokwari,-0.8667,134.0833,25.75,84,98,4.45,ID,2024-04-08 15:37:09
276,eyl,7.9803,49.8164,28.08,70,77,6.12,SO,2024-04-08 15:37:09
277,high wycombe,51.6291,-0.7493,17.46,64,92,1.79,GB,2024-04-08 15:33:31
278,kaiapoi,-43.3783,172.6401,10.05,100,28,2.06,NZ,2024-04-08 15:37:10
279,papao,-17.75,-149.55,25.82,80,100,4.88,PF,2024-04-08 15:37:10
280,bangjun,39.9911,117.2628,9.01,28,26,1.36,CN,2024-04-08 15:37:10
281,magadan,59.5667,150.8,-3.04,94,100,5.03,RU,2024-04-08 15:37:10
282,xilin hot,43.9667,116.0333,3.79,35,3,2.48,CN,2024-04-08 15:37:10
283,recani,31.2846,-4.2688,34.16,6,0,4.97,MA,2024-04-08 15:37:10
284,el fasher,13.6279,25.3494,34.47,8,70,2.87,SD,2024-04-08 15:37:10
285,vila franca do campo,37.7167,-25.4333,18.27,99,98,3.6,PT,2024-04-08 15:37:10
286,bereznik,62.8551,42.7072,0.39,95,100,2.54,RU,2024-04-08 15:37:11
287,saldanha,-33.0117,17.9442,21.03,91,100,10.36,ZA,2024-04-08 15:37:11
288,codrington,-38.2667,141.9667,12.77,58,29,8.1,AU,2024-04-08 15:37:11
289,plettenberg bay,-34.0527,23.3716,17.92,93,91,0.99,ZA,2024-04-08 15:37:11
290,laboulaye,-34.1266,-63.3912,25.17,41,4,7.81,AR,2024-04-08 15:33:03
291,kalianget,-7.05,113.9333,27.59,85,98,2.76,ID,2024-04-08 15:37:11
292,boende,-0.2167,20.8667,29.43,60,29,1.43,CD,2024-04-08 15:37:11
293,aasiaat,68.7098,-52.8699,-6.62,87,87,1.99,GL,2024-04-08 15:37:11
294,katsuura,35.1333,140.3,17.83,98,99,4.64,JP,2024-04-08 15:37:11
295,carlos barbosa,-29.2975,-51.5036,25.86,76,91,1.38,BR,2024-04-08 15:37:12
296,santa cecilia,-26.9608,-50.4269,24.63,67,45,1.31,BR,2024-04-08 15:37:12
297,namibe,-15.1961,12.1522,23.87,73,100,3.6,AO,2024-04-08 15:37:12
298,mount isa,-20.7333,139.5,21.87,40,0,4.12,AU,2024-04-08 15:37:12
299,riyadh,24.6877,46.7219,20.08,49,99,6.13,SA,2024-04-08 15:35:41
300,hithadhoo,-0.6,73.0833,29.7,68,99,1.59,MV,2024-04-08 15:37:12
301,kristinestad,62.2743,21.376,7.28,94,80,3.59,FI,2024-04-08 15:37:12
302,alta sierra,35.7291,-118.5495,-2.16,56,2,1.19,US,2024-04-08 15:37:12
303,sisimiut,66.9395,-53.6735,-4.35,72,75,2.68,GL,2024-04-08 15:37:12
304,iquique,-20.2208,-70.1431,23.02,76,100,2.67,CL,2024-04-08 15:37:13
305,nova vicosa,-17.8919,-39.3719,28.68,64,83,3.95,BR,2024-04-08 15:37:13
306,ta`u,-14.2336,-169.5144,29.08,79,73,5.84,AS,2024-04-08 15:37:13
307,kuta,-8.7233,115.1723,27.97,83,40,1.03,ID,2024-04-08 15:37:13
308,puerto san jose,13.9256,-90.8244,31.32,57,7,2.89,GT,2024-04-08 15:34:30
309,sambava,-14.2667,50.1667,26.31,87,64,4.94,MG,2024-04-08 15:37:13
310,neryungri,56.6709,124.6491,-18.23,100,46,1.6,RU,2024-04-08 15:37:13
311,nishinoomote,30.7333,131.0,19.35,95,100,4.01,JP,2024-04-08 15:36:09
312,bamboo flat,11.7,92.7167,30.05,74,20,1.03,IN,2024-04-08 15:37:14
313,mandiana,10.6333,-8.6833,38.24,27,83,2.68,GN,2024-04-08 15:37:14
314,bandarbeyla,9.4942,50.8122,28.17,69,98,3.91,SO,2024-04-08 15:37:14
315,praia da vitoria,38.7333,-27.0667,18.2,82,40,5.2,PT,2024-04-08 15:37:14
316,thohoyandou,-22.9456,30.485,18.31,93,100,0.31,ZA,2024-04-08 15:37:14
317,soto la marina,23.7667,-98.2167,31.76,49,9,5.96,MX,2024-04-08 15:37:14
318,maceio,-9.6658,-35.7353,30.69,74,75,4.63,BR,2024-04-08 15:37:14
319,bunia,1.5667,30.25,21.45,81,87,1.2,CD,2024-04-08 15:37:14
320,sur,22.5667,59.5289,28.33,55,5,1.32,OM,2024-04-08 15:37:15
321,tadine,-21.55,167.8833,23.57,89,57,4.21,NC,2024-04-08 15:37:15
322,arenal,8.4593,-73.9433,36.93,42,96,1.17,CO,2024-04-08 15:37:15
323,amga,60.8953,131.9608,-16.89,100,88,0.88,RU,2024-04-08 15:37:15
324,jiuquan,39.7432,98.5174,12.83,13,100,3.64,CN,2024-04-08 15:37:15
325,bangui,4.3612,18.555,34.1,55,75,1.84,CF,2024-04-08 15:37:15
326,tual,-5.6667,132.75,26.31,90,100,5.18,ID,2024-04-08 15:37:15
327,wynyard,-41.0,145.7167,9.22,75,3,3.78,AU,2024-04-08 15:37:15
328,langxiang,46.95,128.8833,-4.89,44,0,1.42,CN,2024-04-08 15:37:15
329,klaksvik,62.2266,-6.589,7.51,92,82,11.87,FO,2024-04-08 15:37:16
330,jiayuguan,39.8167,98.3,11.46,13,100,4.11,CN,2024-04-08 15:37:16
331,cidreira,-30.1811,-50.2056,23.41,81,98,1.94,BR,2024-04-08 15:37:16
332,arkalyk,50.2486,66.9114,8.79,78,13,5.54,KZ,2024-04-08 15:37:16
333,ryotsu-minato,38.0833,138.4333,11.67,87,100,2.37,JP,2024-04-08 15:37:16
334,saint cloud,45.5608,-94.1625,6.6,93,100,0.45,US,2024-04-08 15:37:16
335,san felipe,10.3399,-68.7425,36.85,30,95,1.08,VE,2024-04-08 15:37:16
336,nyandoma,61.669,40.1991,2.31,100,100,4.13,RU,2024-04-08 15:37:16
337,las cruces,32.3123,-106.7783,16.11,19,0,0.89,US,2024-04-08 15:35:29
338,rangkasbitung,-6.3591,106.2494,25.52,90,95,2.92,ID,2024-04-08 15:37:17
339,mutuali,-14.8706,37.0044,23.62,80,89,0.87,MZ,2024-04-08 15:37:17
340,rongelap,11.1635,166.8941,27.05,81,80,9.96,MH,2024-04-08 15:37:17
341,mao,39.8885,4.2658,19.31,82,0,6.69,ES,2024-04-08 15:37:17
342,coahuayana de hidalgo,18.7,-103.6583,30.2,30,4,2.41,MX,2024-04-08 15:37:17
343,porto novo,6.4965,2.6036,30.9,64,51,5.32,BJ,2024-04-08 15:37:17
344,serdar,38.9764,56.2757,21.19,42,95,2.05,TM,2024-04-08 15:37:17
345,port blair,11.6667,92.75,30.02,74,20,1.03,IN,2024-04-08 15:37:18
346,pandaria,22.2333,81.4167,21.86,65,100,2.04,IN,2024-04-08 15:37:18
347,dahanu,19.9667,72.7333,27.33,68,0,2.93,IN,2024-04-08 15:37:18
348,al qusayr,34.5091,36.5798,16.51,57,99,1.83,SY,2024-04-08 15:37:18
349,sao jose da coroa grande,-8.8978,-35.1478,29.99,66,56,3.83,BR,2024-04-08 15:37:18
350,caconda,-13.7333,15.0667,20.61,83,59,2.96,AO,2024-04-08 15:37:18
351,chom thong,18.4174,98.6743,33.38,25,99,2.26,TH,2024-04-08 15:37:18
352,takoradi,4.8845,-1.7554,30.78,70,77,6.75,GH,2024-04-08 15:37:18
353,trairi,-3.2778,-39.2689,29.13,77,64,3.61,BR,2024-04-08 15:37:19
354,santa cruz,-17.8,-63.1667,25.03,88,75,5.14,BO,2024-04-08 15:36:20
355,mareeba,-17.0,145.4333,23.02,89,100,0.24,AU,2024-04-08 15:37:19
356,langtoucun,40.0261,124.3286,7.57,23,0,7.07,CN,2024-04-08 15:37:19
357,mariestad,58.7097,13.8237,16.26,73,100,2.77,SE,2024-04-08 15:37:19
358,vrangel',42.7297,133.0839,1.43,36,39,7.26,RU,2024-04-08 15:37:19
359,verkhnyaya tura,58.3594,59.8175,0.96,87,84,3.88,RU,2024-04-08 15:37:19
360,kapuskasing,49.4169,-82.4331,11.05,43,75,1.03,CA,2024-04-08 15:34:02
361,besisahar,28.2313,84.3761,19.35,20,13,4.62,NP,2024-04-08 15:37:20
362,utrik,11.2278,169.8474,26.72,82,91,10.18,MH,2024-04-08 15:37:20
363,uruzgan,32.8333,66.0,19.57,26,100,1.56,AF,2024-04-08 15:37:20
364,margate,51.3813,1.3862,16.6,77,100,4.9,GB,2024-04-08 15:37:20
365,khilok,51.3674,110.4676,0.4,93,98,1.58,RU,2024-04-08 15:37:20
366,pemangkat,1.1667,108.9667,27.62,82,100,2.07,ID,2024-04-08 15:37:20
367,namtsy,62.7161,129.6658,-7.62,96,99,1.33,RU,2024-04-08 15:37:20
368,korla,41.7597,86.1469,15.24,31,3,0.9,CN,2024-04-08 15:37:20
369,carauari,-4.8828,-66.8958,32.55,57,100,1.19,BR,2024-04-08 15:37:20
370,porecatu,-22.7558,-51.3792,23.72,89,99,1.89,BR,2024-04-08 15:37:21
371,omdurman,15.6445,32.4777,33.28,6,26,6.12,SD,2024-04-08 15:37:21
372,sarmiento,-45.5882,-69.07,12.4,38,2,12.32,AR,2024-04-08 15:37:21
373,salekhard,66.53,66.6019,-13.11,81,22,3.58,RU,2024-04-08 15:33:49
374,natal,-5.795,-35.2094,31.12,66,75,5.14,BR,2024-04-08 15:34:19
375,yangquan,37.8575,113.5633,11.22,78,100,3.18,CN,2024-04-08 15:37:21
376,misratah,32.3754,15.0925,21.43,48,0,6.04,LY,2024-04-08 15:35:53
377,madhipura,25.9167,86.7833,29.95,27,77,9.06,IN,2024-04-08 15:37:21
378,sinan,34.8262,126.1086,11.06,84,91,7.02,KR,2024-04-08 15:37:21
379,yuktae-dong,40.0247,128.1597,6.53,69,16,2.59,KP,2024-04-08 15:37:22
380,kapa'a,22.0752,-159.319,22.18,86,20,8.75,US,2024-04-08 15:37:22
381,kone,-21.0595,164.8658,22.1,95,0,2.0,NC,2024-04-08 15:37:22
382,sile,41.1754,29.6133,16.37,86,0,4.89,TR,2024-04-08 15:37:22
383,canutama,-6.5339,-64.3831,32.88,55,98,1.05,BR,2024-04-08 15:37:22
384,north bondi,-33.8824,151.2769,17.94,89,21,3.09,AU,2024-04-08 15:37:22
385,lerwick,60.1545,-1.1494,10.0,74,86,10.41,GB,2024-04-08 15:37:22
386,alderetes,-26.8167,-65.1333,23.79,68,77,1.93,AR,2024-04-08 15:34:54
387,hasaki,35.7333,140.8333,19.05,99,100,4.14,JP,2024-04-08 15:37:22
388,san pedro pochutla,15.7333,-96.4667,28.84,43,21,3.04,MX,2024-04-08 15:37:23
389,santana,-0.0583,-51.1817,32.1,62,75,1.03,BR,2024-04-08 15:33:39
390,langepas,61.2544,75.2124,0.0,99,100,2.68,RU,2024-04-08 15:37:23
391,lulea,65.5842,22.1547,3.04,87,0,3.6,SE,2024-04-08 15:37:23
392,longboat key,27.4125,-82.659,26.12,51,0,6.69,US,2024-04-08 15:37:23
393,kruisfontein,-34.0033,24.7314,19.38,91,49,3.5,ZA,2024-04-08 15:37:23
394,vallenar,-28.5708,-70.7581,24.44,46,0,2.23,CL,2024-04-08 15:37:23
395,navrongo,10.8956,-1.0921,41.43,17,63,2.15,GH,2024-04-08 15:37:23
396,nouadhibou,20.931,-17.0347,23.99,50,0,9.26,MR,2024-04-08 15:37:23
397,tejen,37.3834,60.5054,23.75,17,100,3.77,TM,2024-04-08 15:37:24
398,altai,46.3722,96.2583,2.0,60,63,1.7,MN,2024-04-08 15:37:24
399,huangmei,30.1924,116.025,12.86,94,100,2.63,CN,2024-04-08 15:37:24
400,nar'yan-mar,67.6713,53.087,-13.27,92,13,2.68,RU,2024-04-08 15:33:52
401,medemblik,52.7687,5.1062,18.9,72,95,4.02,NL,2024-04-08 15:37:24
402,sault ste. marie,46.5168,-84.3333,9.16,64,100,5.66,CA,2024-04-08 15:32:24
403,rechka-vydrino,51.485,104.8461,0.66,98,100,1.75,RU,2024-04-08 15:37:24
404,hassi messaoud,31.6804,6.0729,34.76,6,92,4.89,DZ,2024-04-08 15:37:24
405,ginir,7.1333,40.7,17.92,80,79,2.35,ET,2024-04-08 15:37:25
406,pariaman,-0.619,100.12,26.03,87,92,2.01,ID,2024-04-08 15:37:25
407,fortuna,40.5982,-124.1573,11.1,87,0,3.09,US,2024-04-08 15:37:25
408,as suwayrah,32.9256,44.7758,28.79,28,0,4.46,IQ,2024-04-08 15:37:25
409,west plains,36.7281,-91.8524,22.34,34,0,3.6,US,2024-04-08 15:37:25
410,mabaruma,8.2,-59.7833,32.0,62,40,3.09,GY,2024-04-08 15:37:25
411,sosnovyy bor,59.9,29.1167,13.1,77,70,5.24,RU,2024-04-08 15:37:25
412,uvalde,29.3669,-99.767,22.95,88,75,4.12,US,2024-04-08 15:33:43
413,galliano,29.4422,-90.2992,25.56,73,40,4.63,US,2024-04-08 15:37:25
414,armidale,-30.5167,151.65,9.81,88,48,1.41,AU,2024-04-08 15:37:26
415,pangody,65.85,74.4859,-9.85,94,89,4.09,RU,2024-04-08 15:37:26
416,umluj,25.0213,37.2685,24.7,45,0,2.53,SA,2024-04-08 15:37:26
417,zhirnovsk,50.9845,44.7735,14.68,66,100,3.34,RU,2024-04-08 15:37:26
418,kattivakkam,13.2167,80.3167,30.06,74,1,4.94,IN,2024-04-08 15:37:26
419,rudsar,37.1376,50.288,13.99,83,49,3.14,IR,2024-04-08 15:37:26
420,trinidad,-14.8333,-64.9,28.87,78,100,2.99,BO,2024-04-08 15:37:26
421,washington court house,39.5364,-83.4391,21.33,56,0,5.66,US,2024-04-08 15:37:26
422,belmopan,17.25,-88.7667,28.21,78,99,3.09,BZ,2024-04-08 15:37:27
423,caloto,3.0359,-76.4079,27.88,63,52,1.58,CO,2024-04-08 15:37:27
424,alekseyevka,50.6309,38.6903,17.53,54,89,2.9,RU,2024-04-08 15:37:27
425,surskoye,54.4821,46.7214,10.97,81,96,4.66,RU,2024-04-08 15:37:27
426,ambatofinandrahana,-20.55,46.8,19.01,84,92,1.85,MG,2024-04-08 15:37:27
427,westport,41.1415,-73.3579,17.48,37,91,0.89,US,2024-04-08 15:32:36
428,fisterra,42.9049,-9.2629,13.75,62,10,10.98,ES,2024-04-08 15:37:27
429,lata,40.1629,-8.3327,14.4,68,82,6.24,PT,2024-04-08 15:37:27
430,vizinga,61.0749,50.1031,4.92,96,100,4.52,RU,2024-04-08 15:37:27
431,tabou,4.423,-7.3528,30.21,68,52,4.62,CI,2024-04-08 15:37:27
432,amble,55.3333,-1.5833,12.42,87,75,3.6,GB,2024-04-08 15:37:28
433,cartagena,10.3997,-75.5144,31.79,70,40,2.57,CO,2024-04-08 15:32:46
434,benguela,-12.5763,13.4055,27.56,79,89,4.13,AO,2024-04-08 15:37:28
435,maues,-3.3836,-57.7186,29.91,72,82,2.15,BR,2024-04-08 15:37:28
436,constantia,44.1833,28.65,19.38,73,0,2.3,RO,2024-04-08 15:37:28
437,mar del plata,-38.0023,-57.5575,24.97,65,40,6.71,AR,2024-04-08 15:35:20
438,forster,-32.1667,152.5167,14.65,100,25,3.07,AU,2024-04-08 15:37:28
439,slobodskoy,58.7322,50.1772,3.7,98,100,3.44,RU,2024-04-08 15:35:25
440,sittwe,20.15,92.9,28.58,64,0,5.11,MM,2024-04-08 15:37:28
441,buala,-8.145,159.5921,27.16,85,99,2.17,SB,2024-04-08 15:37:29
442,laguna,38.421,-121.4238,15.01,69,0,5.14,US,2024-04-08 15:37:29
443,skikda,36.8762,6.9092,20.85,68,100,2.3,DZ,2024-04-08 15:37:29
444,bure,10.7,37.0667,23.78,33,86,3.71,ET,2024-04-08 15:37:29
445,numan,9.4667,12.0333,39.26,20,92,4.49,NG,2024-04-08 15:37:29
446,ingeniero guillermo n. juarez,-23.9,-61.85,26.41,73,92,3.14,AR,2024-04-08 15:37:29
447,shubarshi,48.5872,57.1869,8.88,66,75,3.62,KZ,2024-04-08 15:37:29
448,kenai,60.5544,-151.2583,-4.36,94,20,0.0,US,2024-04-08 15:37:29
449,paros,37.0833,25.15,18.94,61,20,11.83,GR,2024-04-08 15:37:30
450,luwuk,-0.9516,122.7875,23.85,90,99,1.15,ID,2024-04-08 15:37:30
451,conception bay south,47.4999,-52.9981,0.58,94,100,9.11,CA,2024-04-08 15:37:30
452,el bordo,2.117,-76.9821,27.97,64,36,1.93,CO,2024-04-08 15:37:30
453,puerto aysen,-45.4,-72.7,7.52,81,93,2.96,CL,2024-04-08 15:37:30
454,ozernyy,55.5802,32.4127,14.81,81,100,1.41,RU,2024-04-08 15:37:30
455,bereznehuvate,47.3078,32.8499,19.07,44,9,3.39,UA,2024-04-08 15:37:30
456,naze,28.3667,129.4833,19.51,92,87,4.46,JP,2024-04-08 15:37:31
457,am timan,11.0297,20.2827,37.48,19,48,1.99,TD,2024-04-08 15:37:31
458,itamaraca,-7.7478,-34.8256,32.03,57,45,4.33,BR,2024-04-08 15:37:31
459,angra do heroismo,38.65,-27.2167,18.4,92,40,0.89,PT,2024-04-08 15:37:31
460,muisne,0.6,-80.0333,27.15,78,86,4.17,EC,2024-04-08 15:37:31
461,skovorodino,53.9833,123.9167,-11.8,95,5,0.81,RU,2024-04-08 15:37:31
462,petrozavodsk,61.7849,34.3469,10.7,100,96,8.94,RU,2024-04-08 15:37:31
463,luderitz,-26.6481,15.1594,17.02,87,47,2.09,NA,2024-04-08 15:37:32
464,lagoa vermelha,-28.2086,-51.5258,25.25,66,61,2.74,BR,2024-04-08 15:35:06
465,yeosu,34.7546,127.6599,14.29,73,100,2.0,KR,2024-04-08 15:37:32
466,canmore,51.0834,-115.3521,4.34,48,73,3.09,CA,2024-04-08 15:33:48
467,agbabu,6.5886,4.8343,31.08,66,100,2.78,NG,2024-04-08 15:37:32
468,kencong,-8.2833,113.3667,25.18,92,100,1.14,ID,2024-04-08 15:37:32
469,sal rei,16.1833,-22.9167,25.11,53,40,11.32,CV,2024-04-08 15:37:32
470,nieuw amsterdam,5.8833,-55.0833,34.09,58,75,3.09,SR,2024-04-08 15:37:32
471,fauske,67.2588,15.3918,6.02,99,100,2.28,NO,2024-04-08 15:37:32
472,coquimbo,-29.9533,-71.3436,14.85,88,100,2.06,CL,2024-04-08 15:36:35
473,qa'en,33.7265,59.1844,16.02,40,81,5.72,IR,2024-04-08 15:37:33
474,veraval,20.9,70.3667,26.32,78,0,5.62,IN,2024-04-08 15:37:33
475,clausthal-zellerfeld,51.8,10.3333,21.76,60,78,5.19,DE,2024-04-08 15:37:33
476,pitimbu,-7.4706,-34.8086,32.33,64,11,5.04,BR,2024-04-08 15:37:33
477,heyuan,23.7333,114.6833,19.17,90,100,2.24,CN,2024-04-08 15:37:33
478,yemetsk,63.4721,41.7941,-0.04,98,100,1.39,RU,2024-04-08 15:37:33
479,changji,44.0167,87.3167,17.44,34,0,1.0,CN,2024-04-08 15:37:33
480,port moresby,-9.4431,147.1797,25.55,87,100,1.7,PG,2024-04-08 15:37:33
481,itoman,26.1247,127.6694,22.43,94,100,4.12,JP,2024-04-08 15:37:34
482,celestun,20.8667,-90.4,30.52,49,29,4.64,MX,2024-04-08 15:37:34
483,mek'ele,13.4967,39.4753,19.71,74,49,6.05,ET,2024-04-08 15:37:34
484,cobourg,50.2667,10.9667,28.21,41,44,0.45,DE,2024-04-08 15:35:31
485,trest,49.2909,15.4821,22.46,69,100,6.26,CZ,2024-04-08 15:37:34
486,dunay,42.8803,132.3375,3.18,42,0,9.91,RU,2024-04-08 15:37:34
487,dalandzadgad,43.5708,104.425,7.12,52,72,4.44,MN,2024-04-08 15:37:34
488,untsukul',42.7115,46.7866,11.61,65,100,2.18,RU,2024-04-08 15:37:34
489,kabompo,-13.5927,24.2008,22.7,82,99,1.19,ZM,2024-04-08 15:37:34
490,broome,42.2506,-75.833,15.66,42,0,2.06,US,2024-04-08 15:34:35
491,howrah,22.5892,88.3103,27.0,57,40,0.0,IN,2024-04-08 15:37:35
492,tamanrasset,22.785,5.5228,29.87,8,0,6.69,DZ,2024-04-08 15:37:35
493,ibshaway,29.358,30.6814,24.83,26,89,7.65,EG,2024-04-08 15:37:35
494,bechar,31.6167,-2.2167,33.7,8,11,5.47,DZ,2024-04-08 15:37:35
495,santa elena de uairen,4.6167,-61.1333,30.42,33,50,2.85,VE,2024-04-08 15:37:35
496,jumla,29.2747,82.1838,5.4,35,8,2.78,NP,2024-04-08 15:37:35
497,egilsstadir,65.2653,-14.3948,-0.05,100,100,9.26,IS,2024-04-08 15:37:35
498,lib,8.3122,167.3766,27.63,80,99,10.14,MH,2024-04-08 15:37:36
499,shihezi,44.3,86.0333,16.82,40,23,3.27,CN,2024-04-08 15:37:36
500,keetmanshoop,-26.5833,18.1333,20.51,34,40,6.69,NA,2024-04-08 15:37:36
501,loukhi,66.0764,33.0381,-2.54,97,100,3.21,RU,2024-04-08 15:37:36
502,birjand,32.8663,59.2211,21.26,24,40,5.14,IR,2024-04-08 15:37:36
503,kirkcaldy,56.1098,-3.1615,13.78,73,98,0.89,GB,2024-04-08 15:37:36
504,mejit,10.2753,170.8646,26.75,83,99,10.62,MH,2024-04-08 15:37:36
505,tateyama,34.9833,139.8667,17.83,98,100,2.86,JP,2024-04-08 15:37:36
506,chui,-33.6971,-53.4616,24.33,65,15,4.27,UY,2024-04-08 15:32:56
507,brokopondo,4.75,-55.1667,31.1,53,57,0.81,SR,2024-04-08 15:37:37
508,roma,43.2128,-75.4557,16.71,34,100,1.34,US,2024-04-08 15:34:06
509,kayes,14.0,-11.0,42.21,8,26,3.65,ML,2024-04-08 15:37:37
510,monkey bay,-14.0728,34.9201,26.63,75,61,5.87,MW,2024-04-08 15:37:37
511,kalmunai,7.4167,81.8167,27.4,72,99,3.59,LK,2024-04-08 15:37:37
512,guiuan,11.0333,125.7247,27.42,82,12,4.67,PH,2024-04-08 15:37:37
513,kiziltepe,37.1933,40.585,14.2,82,75,6.17,TR,2024-04-08 15:37:37
514,ristiina,61.5058,27.2464,12.06,76,42,5.09,FI,2024-04-08 15:37:37
515,sao vicente,-23.9631,-46.3919,31.1,57,100,2.24,BR,2024-04-08 15:35:05
516,grand-lahou,5.1367,-5.0242,30.45,71,46,4.95,CI,2024-04-08 15:37:38
517,quellon,-43.1167,-73.6167,10.09,76,93,6.41,CL,2024-04-08 15:33:31
518,leava,-14.3,-178.1667,29.13,79,94,5.82,WF,2024-04-08 15:37:38
519,bam,29.106,58.357,27.94,15,100,3.45,IR,2024-04-08 15:37:38
520,kawalu,-7.3817,108.2082,24.28,96,100,0.56,ID,2024-04-08 15:37:38
521,naha,26.2125,127.6811,22.38,95,100,4.12,JP,2024-04-08 15:37:38
522,quelimane,-17.8786,36.8883,28.97,79,40,2.4,MZ,2024-04-08 15:37:38
523,plyeshchanitsy,54.4222,27.8331,16.03,73,100,2.4,BY,2024-04-08 15:37:38
524,ust'-kut,56.7938,105.7672,-8.63,97,100,1.49,RU,2024-04-08 15:37:38
525,charles city,43.0664,-92.6724,8.32,92,100,6.69,US,2024-04-08 15:37:38
526,fort st. john,56.2499,-120.8529,1.94,69,75,5.14,CA,2024-04-08 15:35:58
527,plastun,44.7561,136.2939,-2.76,42,1,1.76,RU,2024-04-08 15:37:39
528,port augusta,-32.5,137.7667,16.04,66,39,9.2,AU,2024-04-08 15:37:39
529,carriere,10.0341,-12.8657,38.33,22,49,1.92,GN,2024-04-08 15:37:39
530,comodoro rivadavia,-45.8667,-67.5,15.92,31,20,9.77,AR,2024-04-08 15:36:00
531,tupiza,-21.45,-65.7167,21.26,34,82,2.3,BO,2024-04-08 15:37:39
532,kem',64.9555,34.5793,-1.92,95,100,2.29,RU,2024-04-08 15:37:39
533,guerrero negro,27.9769,-114.0611,15.51,56,86,9.57,MX,2024-04-08 15:37:39
534,holualoa,19.6228,-155.9522,20.91,82,0,1.54,US,2024-04-08 15:37:14
535,rio brilhante,-21.8019,-54.5464,33.41,42,72,2.67,BR,2024-04-08 15:37:40
536,musaffah,24.3458,54.5024,31.05,33,0,2.57,AE,2024-04-08 15:37:40
537,oncativo,-31.9135,-63.682,24.82,52,2,5.88,AR,2024-04-08 15:37:40
538,ma'rib,15.4591,45.3253,32.13,30,58,5.8,YE,2024-04-08 15:37:40
539,basse-terre,16.1667,-61.6667,29.77,65,100,4.63,GP,2024-04-08 15:32:49
540,dangriga,16.9692,-88.2321,27.4,86,60,6.8,BZ,2024-04-08 15:37:40
541,labytnangi,66.6572,66.4183,-13.12,81,11,3.31,RU,2024-04-08 15:37:16
542,vilyuysk,63.7553,121.6247,-6.67,96,100,2.68,RU,2024-04-08 15:37:40
543,dombarovskiy,50.7587,59.5386,6.11,89,81,4.02,RU,2024-04-08 15:37:40
544,berezovyy,51.6667,135.7,-4.59,84,87,1.73,RU,2024-04-08 15:37:40
545,bom jardim,-7.7958,-35.5872,33.01,40,46,4.43,BR,2024-04-08 15:37:41
546,ciudad lazaro cardenas,17.9583,-102.2,28.12,51,0,1.66,MX,2024-04-08 15:37:41
