City_ID,City,Lat,Lng,Max Temp,Humidity,Cloudiness,Wind Speed,Country,Date
0,palembang,-2.9167,104.7458,29.05,84,75,1.54,ID,2024-04-09 03:09:58
1,yekaterinburg,56.8575,60.6125,2.77,93,100,5.0,RU,2024-04-09 03:07:56
2,badger,64.8,-147.5333,2.14,66,75,5.66,US,2024-04-09 03:09:58
3,qaqortoq,60.7167,-46.0333,-4.87,89,100,2.07,GL,2024-04-09 03:09:58
4,port mathurin,-19.6833,63.4167,26.67,78,59,3.24,MU,2024-04-09 03:09:58
5,isafjordur,66.0755,-23.124,-4.52,89,100,6.98,IS,2024-04-09 03:05:20
6,port-aux-francais,-49.35,70.2167,8.14,87,100,16.47,TF,2024-04-09 03:09:58
7,albany,42.6001,-73.9662,11.07,63,78,1.34,US,2024-04-09 03:06:25
8,el calafate,-50.3408,-72.2768,2.12,72,14,3.6,AR,2024-04-09 03:07:14
9,baharly,38.4362,57.4316,16.52,61,63,3.07,TM,2024-04-09 03:09:59
10,atafu village,-8.5421,-172.5159,30.09,74,21,5.06,TK,2024-04-09 03:09:59
11,suzhou,31.3114,120.6181,20.15,44,16,2.48,CN,2024-04-09 03:09:59
12,vilhena,-12.7406,-60.1458,21.72,99,91,1.38,BR,2024-04-09 03:07:35
13,dudinka,69.4058,86.1778,-12.4,94,99,5.81,RU,2024-04-09 03:09:59
14,yellowknife,62.456,-114.3525,-3.1,98,67,0.46,CA,2024-04-09 03:10:00
15,hermanus,-34.4187,19.2345,12.67,84,38,1.23,ZA,2024-04-09 03:10:00
16,nova sintra,14.8667,-24.7167,22.6,74,0,9.95,CV,2024-04-09 03:10:00
17,adamstown,-25.066,-130.1015,23.84,72,93,4.02,PN,2024-04-09 03:05:02
18,sitka,57.0531,-135.33,5.94,70,75,2.57,US,2024-04-09 03:06:42
19,aasiaat,68.7098,-52.8699,-14.24,98,89,2.62,GL,2024-04-09 03:10:00
20,mansa,29.9833,75.3833,27.6,11,100,2.52,IN,2024-04-09 03:10:00
21,kerikeri,-35.2268,173.9474,22.73,78,92,3.55,NZ,2024-04-09 03:10:00
22,berdigestyakh,62.0989,126.6992,-2.24,85,100,2.64,RU,2024-04-09 03:10:01
23,areia branca,-4.9561,-37.1369,26.86,86,100,4.99,BR,2024-04-09 03:10:01
24,west island,-12.1568,96.8225,28.99,74,40,6.69,CC,2024-04-09 03:10:01
25,winnemucca,40.973,-117.7357,4.03,60,0,3.09,US,2024-04-09 03:10:01
26,weno,7.4515,151.8468,31.97,74,40,5.66,FM,2024-04-09 03:10:01
27,edinburgh of the seven seas,-37.0676,-12.3116,18.88,91,100,12.88,SH,2024-04-09 03:10:01
28,tuyen quang,21.8233,105.2181,22.14,87,100,0.43,VN,2024-04-09 03:10:01
29,gaoyou,32.7858,119.4278,16.55,68,64,1.17,CN,2024-04-09 03:05:45
30,swords,53.4597,-6.2181,7.3,92,75,9.26,IE,2024-04-09 03:09:26
31,bredasdorp,-34.5322,20.0403,16.31,82,100,3.04,ZA,2024-04-09 03:10:02
32,abbeville,50.1,1.8333,9.98,80,77,8.77,FR,2024-04-09 03:10:02
33,udachny,66.4167,112.4,-5.31,70,100,9.88,RU,2024-04-09 03:10:02
34,dul'durga,50.6761,113.5931,9.49,44,100,4.02,RU,2024-04-09 03:10:02
35,ilulissat,69.2167,-51.1,-8.99,67,100,2.57,GL,2024-04-09 03:10:02
36,shambu,9.5667,37.1,13.14,59,43,0.63,ET,2024-04-09 03:10:02
37,keflavik,64.0049,-22.5624,1.24,69,0,9.77,IS,2024-04-09 03:10:02
38,lebu,-37.6167,-73.65,11.92,88,100,5.65,CL,2024-04-09 03:10:02
39,ushuaia,-54.8,-68.3,2.81,65,0,1.54,AR,2024-04-09 03:10:03
40,calama,-22.4667,-68.9333,13.76,43,10,2.49,CL,2024-04-09 03:10:03
41,pontremoli,44.3751,9.8789,16.75,62,100,0.46,IT,2024-04-09 03:10:03
42,mirny,62.5353,113.9611,-7.09,78,12,2.24,RU,2024-04-09 03:05:04
43,bethel,41.3712,-73.414,13.05,44,75,3.09,US,2024-04-09 03:10:03
44,jamestown,42.097,-79.2353,12.8,69,0,0.89,US,2024-04-09 03:10:03
45,arenapolis,-14.4503,-56.8461,22.74,95,94,1.73,BR,2024-04-09 03:10:03
46,belmonte,-15.8631,-38.8828,25.15,89,72,2.71,BR,2024-04-09 03:10:03
47,cradock,-32.1642,25.6192,12.96,65,13,1.73,ZA,2024-04-09 03:10:04
48,kodiak,57.79,-152.4072,0.73,47,100,6.17,US,2024-04-09 03:10:04
49,dalnegorsk,44.5604,135.5701,7.56,35,0,4.92,RU,2024-04-09 03:10:04
50,afaahiti,-17.75,-149.2833,28.93,83,95,5.14,PF,2024-04-09 03:10:04
51,mucumpiz,8.4167,-71.1333,13.47,89,100,1.81,VE,2024-04-09 03:10:04
52,rongelap,11.1635,166.8941,26.99,80,99,9.83,MH,2024-04-09 03:10:04
53,dara,15.3484,-15.4799,22.48,34,0,5.14,SN,2024-04-09 03:10:04
54,lagunas,-5.2269,-75.6753,23.36,99,100,1.26,PE,2024-04-09 03:10:05
55,papatowai,-46.5619,169.4708,17.5,63,100,3.84,NZ,2024-04-09 03:10:05
56,waitangi,-43.9535,-176.5597,15.46,80,79,3.58,NZ,2024-04-09 03:10:05
57,nago,26.5881,127.9761,23.24,74,100,7.18,JP,2024-04-09 03:10:05
58,saint-philippe,-21.3585,55.7679,22.77,79,58,1.77,RE,2024-04-09 03:10:05
59,port alfred,-33.5906,26.891,17.32,96,95,0.89,ZA,2024-04-09 03:10:05
60,bilibino,68.0546,166.4372,-9.25,72,86,1.64,RU,2024-04-09 03:10:05
61,taoudenni,22.6783,-3.9836,27.52,20,27,5.06,ML,2024-04-09 03:10:05
62,roma,43.2128,-75.4557,11.6,61,100,0.0,US,2024-04-09 03:10:06
63,invercargill,-46.4,168.35,19.5,61,100,4.77,NZ,2024-04-09 03:08:17
64,kotovo,50.3211,44.8012,10.9,78,12,2.74,RU,2024-04-09 03:10:06
65,olonkinbyen,70.9221,-8.7187,-3.88,64,88,7.31,SJ,2024-04-09 03:10:06
66,vorgashor,67.5833,63.95,-24.0,100,100,1.58,RU,2024-04-09 03:10:06
67,marsh harbour,26.5412,-77.0636,20.87,64,100,9.01,BS,2024-04-09 03:06:38
68,saipan,15.1355,145.701,31.39,1,40,6.69,MP,2024-04-09 03:10:06
69,iqaluit,63.7506,-68.5145,-14.61,71,99,6.71,CA,2024-04-09 03:10:06
70,bardai,11.65,7.2333,27.17,24,100,3.37,NG,2024-04-09 03:10:06
71,callao,-12.0667,-77.15,25.4,73,0,4.63,PE,2024-04-09 03:10:07
72,grytviken,-54.2811,-36.5092,1.46,96,100,2.87,GS,2024-04-09 03:10:07
73,tura,25.5198,90.2201,31.92,27,70,1.78,IN,2024-04-09 03:10:07
74,fort st. john,56.2499,-120.8529,6.31,56,100,3.67,CA,2024-04-09 03:07:09
75,sanctuary point,-35.1114,150.629,18.19,89,100,8.48,AU,2024-04-09 03:10:07
76,kolonia town,6.964,158.206,32.06,74,100,5.14,FM,2024-04-09 03:10:07
77,longyearbyen,78.2186,15.6401,-14.09,78,75,2.57,SJ,2024-04-09 03:06:48
78,thanh hoa,19.8,105.7667,22.15,89,100,2.74,VN,2024-04-09 03:09:26
79,thompson,55.7435,-97.8558,-0.26,97,42,1.05,CA,2024-04-09 03:10:07
80,klyuchi,52.2667,79.1667,11.51,75,100,5.56,RU,2024-04-09 03:10:07
81,constantia,44.1833,28.65,9.38,69,0,3.11,RO,2024-04-09 03:10:08
82,auki,-8.7676,160.7034,31.24,64,65,2.64,SB,2024-04-09 03:10:08
83,galveston,29.3669,-94.9669,24.06,90,100,2.24,US,2024-04-09 03:05:56
84,madalena,41.2162,-8.3345,7.53,91,3,0.63,PT,2024-04-09 03:10:08
85,tanumah,27.1,44.1333,22.09,66,0,9.99,SA,2024-04-09 03:10:08
86,puerto natales,-51.7236,-72.4875,3.11,84,33,5.78,CL,2024-04-09 03:10:08
87,belawan,3.7755,98.6832,30.16,84,93,1.73,ID,2024-04-09 03:10:08
88,arraial do cabo,-22.9661,-42.0278,25.27,86,99,9.62,BR,2024-04-09 03:08:22
89,ekibastuz,51.6667,75.3667,7.4,91,72,5.92,KZ,2024-04-09 03:10:09
90,kingston,17.997,-76.7936,28.53,74,20,3.09,JM,2024-04-09 03:07:21
91,malvan,16.0667,73.4667,27.22,62,68,0.72,IN,2024-04-09 03:10:09
92,hawaiian paradise park,19.5933,-154.9731,22.8,90,100,4.63,US,2024-04-09 03:10:09
93,vilyuchinsk,52.9306,158.4028,3.29,100,100,1.3,RU,2024-04-09 03:10:09
94,avarua,-21.2078,-159.775,28.03,78,75,6.69,CK,2024-04-09 03:10:09
95,forster,-32.1667,152.5167,25.77,52,49,5.49,AU,2024-04-09 03:10:09
96,hilo,19.7297,-155.09,25.16,90,100,4.63,US,2024-04-09 03:10:10
97,chamalieres,45.7756,3.0631,7.4,87,100,2.06,FR,2024-04-09 03:10:10
98,tiksi,71.6872,128.8694,-7.32,83,100,10.24,RU,2024-04-09 03:10:10
99,fale old settlement,-9.3852,-171.2468,30.3,73,12,4.76,TK,2024-04-09 03:10:10
100,crane,31.3974,-102.3501,20.45,65,63,9.5,US,2024-04-09 03:10:10
101,tual,-5.6667,132.75,25.53,89,100,1.22,ID,2024-04-09 03:10:10
102,miyazu,35.5333,135.1833,9.11,92,100,6.17,JP,2024-04-09 03:06:04
103,sebastopol,44.6,33.5333,13.37,55,5,2.88,UA,2024-04-09 03:10:10
104,carolina beach,34.0352,-77.8936,17.23,78,23,4.12,US,2024-04-09 03:07:47
105,anadyr,64.75,177.4833,-8.72,56,75,6.71,RU,2024-04-09 03:10:11
106,enewetak,11.3474,162.3373,27.46,80,100,9.36,MH,2024-04-09 03:10:11
107,orai,25.9833,79.4667,31.01,23,100,2.78,IN,2024-04-09 03:10:11
108,puerto ayora,-0.7393,-90.3518,25.34,90,21,2.26,EC,2024-04-09 03:10:11
109,zaozersk,69.4005,32.4476,-4.54,96,100,1.66,RU,2024-04-09 03:10:11
110,okhotsk,59.3833,143.3,-1.21,78,19,2.92,RU,2024-04-09 03:10:11
111,santa ana de yacuma,-13.75,-65.4333,25.6,86,99,2.3,BO,2024-04-09 03:10:11
112,socorro,31.6546,-106.3033,21.56,8,75,4.63,US,2024-04-09 03:05:59
113,praia da vitoria,38.7333,-27.0667,17.09,98,77,6.58,PT,2024-04-09 03:10:12
114,college,64.8569,-147.8028,2.18,69,75,5.66,US,2024-04-09 03:10:12
115,bodo,67.28,14.405,5.02,93,75,2.57,NO,2024-04-09 03:10:12
116,hampton bays,40.869,-72.5176,10.03,77,0,6.26,US,2024-04-09 03:10:12
117,ermelo,-26.5333,29.9833,13.64,96,100,4.66,ZA,2024-04-09 03:10:12
118,utrik,11.2278,169.8474,26.74,81,86,9.95,MH,2024-04-09 03:10:12
119,guerrero negro,27.9769,-114.0611,15.08,65,2,8.98,MX,2024-04-09 03:09:06
120,nordholz,53.7833,8.6,13.79,100,100,4.12,DE,2024-04-09 03:10:12
121,moyale,3.5167,39.0584,20.91,87,100,1.98,KE,2024-04-09 03:10:12
122,fontenay-le-comte,46.5833,-1.0,10.8,85,5,5.39,FR,2024-04-09 03:10:12
123,chonchi,-42.6128,-73.8092,4.56,82,6,1.39,CL,2024-04-09 03:10:13
124,puerto aysen,-45.4,-72.7,1.86,94,74,1.9,CL,2024-04-09 03:05:23
125,pesqueira,-8.3578,-36.6964,19.3,100,82,1.83,BR,2024-04-09 03:08:33
126,cannonvale,-20.2833,148.7,27.66,61,51,3.4,AU,2024-04-09 03:10:13
127,wanning,18.8003,110.3967,27.75,73,98,1.71,CN,2024-04-09 03:10:13
128,jayapura,-2.5333,140.7,27.66,92,100,2.3,ID,2024-04-09 03:10:13
129,margaret river,-33.95,115.0667,20.66,43,5,4.41,AU,2024-04-09 03:10:13
130,talnakh,69.4865,88.3972,-12.66,88,99,3.17,RU,2024-04-09 03:10:13
131,kapuskasing,49.4169,-82.4331,4.93,95,97,2.6,CA,2024-04-09 03:10:13
132,yala,6.3333,101.25,33.11,51,69,2.4,TH,2024-04-09 03:10:13
133,fazilka,30.4,74.0333,28.6,12,100,3.89,IN,2024-04-09 03:06:19
134,la passe,45.5549,-0.8967,10.55,73,6,8.55,FR,2024-04-09 03:10:14
135,lerwick,60.1545,-1.1494,5.0,87,100,4.21,GB,2024-04-09 03:10:14
136,zakamensk,50.3741,103.2863,6.18,76,100,0.16,RU,2024-04-09 03:10:14
137,leua,48.2156,18.6071,15.28,67,100,5.02,SK,2024-04-09 03:10:14
138,palikir - national government center,6.9248,158.1611,31.47,74,100,5.14,FM,2024-04-09 03:10:14
139,weyburn,49.6668,-103.8511,8.62,74,65,6.13,CA,2024-04-09 03:10:14
140,tynda,55.1667,124.7167,-5.11,84,100,1.47,RU,2024-04-09 03:10:14
141,hasaki,35.7333,140.8333,21.27,92,100,18.3,JP,2024-04-09 03:10:15
142,novyy urgal,51.0736,132.5642,2.74,42,41,1.05,RU,2024-04-09 03:10:15
143,ust-nera,64.5667,143.2,-6.2,84,100,2.66,RU,2024-04-09 03:10:15
144,susuman,62.7833,148.1667,-10.01,80,99,1.34,RU,2024-04-09 03:10:15
145,mantua,45.1667,10.7833,13.53,92,100,0.89,IT,2024-04-09 03:10:15
146,nicolet,46.2168,-72.6158,8.8,46,100,3.93,CA,2024-04-09 03:09:07
147,blackmans bay,-43.0167,147.3167,14.07,53,49,1.79,AU,2024-04-09 03:10:15
148,silopi,37.2497,42.4694,11.65,63,38,3.58,TR,2024-04-09 03:10:15
149,kayes,14.0,-11.0,31.92,18,0,4.71,ML,2024-04-09 03:10:15
150,greymouth,-42.4667,171.2,16.99,76,100,5.37,NZ,2024-04-09 03:07:50
151,east london,-33.0153,27.9116,19.42,86,57,3.07,ZA,2024-04-09 03:10:16
152,puerto baquerizo moreno,-0.9,-89.6,25.6,88,15,3.16,EC,2024-04-09 03:10:08
153,essaouira,31.5125,-9.77,16.93,79,2,14.89,MA,2024-04-09 03:10:16
154,laojunmiao,39.8333,97.7333,9.6,18,100,1.35,CN,2024-04-09 03:10:16
155,asahi,35.7167,140.65,21.26,92,100,14.4,JP,2024-04-09 03:10:16
156,anatuya,-28.4606,-62.8347,21.35,76,0,3.93,AR,2024-04-09 03:10:16
157,santo antonio,-6.3106,-35.4789,25.04,85,100,2.29,BR,2024-04-09 03:10:16
158,sao vicente,-23.9631,-46.3919,25.15,26,85,1.63,BR,2024-04-09 03:05:37
159,bagaha,27.1,84.0833,28.5,9,0,2.02,IN,2024-04-09 03:10:16
160,ribeira grande,38.5167,-28.7,17.1,97,85,7.15,PT,2024-04-09 03:10:17
161,fort bragg,35.139,-79.006,18.32,59,0,4.12,US,2024-04-09 03:05:56
162,carnarvon,-24.8667,113.6333,31.48,27,0,7.39,AU,2024-04-09 03:10:17
163,codrington,-38.2667,141.9667,14.37,53,98,7.13,AU,2024-04-09 03:10:17
164,nikol'sk,53.7189,46.0712,9.19,96,100,2.2,RU,2024-04-09 03:10:17
165,viedma,-40.8135,-62.9967,15.8,50,46,10.23,AR,2024-04-09 03:10:17
166,kuala tungkal,-0.8167,103.4667,28.24,83,99,1.92,ID,2024-04-09 03:10:17
167,piedmont,37.8244,-122.2316,17.51,67,20,4.12,US,2024-04-09 03:08:10
168,duong dong,10.2167,103.9667,33.0,58,20,2.06,VN,2024-04-09 03:10:18
169,mont-laurier,46.5501,-75.4993,8.41,74,100,0.75,CA,2024-04-09 03:10:18
170,nema,57.5067,50.5011,4.03,90,99,3.99,RU,2024-04-09 03:10:18
171,port saint john's,-31.6229,29.5448,20.2,86,61,2.45,ZA,2024-04-09 03:10:18
172,yeppoon,-23.1333,150.7333,29.88,47,7,3.37,AU,2024-04-09 03:10:18
173,mount gambier,-37.8333,140.7667,14.72,50,97,4.66,AU,2024-04-09 03:10:18
174,kalininsk,51.5,44.4758,10.5,86,100,2.92,RU,2024-04-09 03:10:18
175,kimbe,-5.5502,150.1429,28.12,81,100,0.65,PG,2024-04-09 03:10:18
176,tulua,4.0847,-76.1954,20.39,91,99,0.47,CO,2024-04-09 03:10:18
177,kill devil hills,36.0307,-75.676,14.99,71,0,5.66,US,2024-04-09 03:10:19
178,stanley,54.868,-1.6985,8.73,97,75,3.6,GB,2024-04-09 03:10:19
179,san luis jilotepeque,14.65,-89.7333,23.58,76,100,1.01,GT,2024-04-09 03:10:19
180,karratha,-20.7377,116.8463,26.94,48,96,11.2,AU,2024-04-09 03:10:19
181,punta arenas,-53.15,-70.9167,4.06,75,75,6.69,CL,2024-04-09 03:06:08
182,atamyrat,37.8357,65.2106,19.31,44,100,9.38,TM,2024-04-09 03:09:17
183,shingu,33.7333,135.9833,15.62,62,81,4.76,JP,2024-04-09 03:10:19
184,warrnambool,-38.3833,142.4833,14.79,54,75,7.26,AU,2024-04-09 03:06:41
185,minas novas,-17.2186,-42.5903,18.32,88,100,0.33,BR,2024-04-09 03:10:20
186,douz,33.4663,9.0203,20.89,23,100,4.03,TN,2024-04-09 03:09:05
187,saint-joseph,-21.3667,55.6167,22.21,79,69,1.88,RE,2024-04-09 03:10:20
188,nanao,37.05,136.9667,11.26,91,100,5.21,JP,2024-04-09 03:10:11
189,ancud,-41.8697,-73.8203,6.67,73,17,3.74,CL,2024-04-09 03:10:20
190,kashgar,39.4547,75.9797,14.88,27,72,1.08,CN,2024-04-09 03:10:20
191,tazovsky,67.4667,78.7,-18.18,94,37,4.76,RU,2024-04-09 03:10:20
192,prince rupert,54.3161,-130.3201,6.05,81,100,3.09,CA,2024-04-09 03:10:20
193,colonia,50.9333,6.95,17.76,69,0,3.09,DE,2024-04-09 03:10:21
194,kasoa,5.533,-0.4224,26.9,87,95,2.25,GH,2024-04-09 03:10:21
195,bizerte,37.2744,9.8739,16.95,58,91,5.42,TN,2024-04-09 03:10:21
196,puri,19.8,85.85,27.29,37,15,6.66,IN,2024-04-09 03:10:21
197,upington,-28.4478,21.2561,11.33,71,0,3.77,ZA,2024-04-09 03:10:21
198,iskateley,67.6803,53.1512,-19.23,100,100,2.12,RU,2024-04-09 03:10:21
199,ikalamavony,-21.15,46.5833,19.16,90,45,1.81,MG,2024-04-09 03:07:17
200,tolanaro,-25.0319,46.9987,21.86,94,100,3.27,MG,2024-04-09 03:10:22
201,saldanha,-33.0117,17.9442,14.71,84,8,8.74,ZA,2024-04-09 03:10:22
202,goshaingaon,26.4379,89.9788,30.18,33,100,3.1,IN,2024-04-09 03:10:22
203,massena,44.9281,-74.8919,8.73,75,0,1.54,US,2024-04-09 03:10:22
204,cooper's town,26.8667,-77.5167,20.97,65,95,9.18,BS,2024-04-09 03:10:22
205,siwa oasis,29.2041,25.5195,15.66,68,0,2.96,EG,2024-04-09 03:10:22
206,duba,27.3513,35.6901,21.88,53,0,3.59,SA,2024-04-09 03:09:16
207,estacion coahuila,32.1939,-115.0017,20.96,13,3,6.38,MX,2024-04-09 03:10:23
208,altinekin,38.3078,32.8686,8.31,85,70,3.01,TR,2024-04-09 03:10:23
209,howrah,22.5892,88.3103,29.0,51,40,3.6,IN,2024-04-09 03:10:23
210,ulety,51.3572,112.4849,9.12,29,43,5.23,RU,2024-04-09 03:10:23
211,wuhai,39.6647,106.8122,18.46,16,100,3.65,CN,2024-04-09 03:05:46
212,khovd,48.0056,91.6419,8.06,31,33,1.67,MN,2024-04-09 03:10:23
213,newman,37.3138,-121.0208,18.13,64,0,1.79,US,2024-04-09 03:10:23
214,lahij,13.1667,44.5833,23.96,83,67,2.33,YE,2024-04-09 03:10:24
215,thunder bay,48.4001,-89.3168,3.95,93,100,2.06,CA,2024-04-09 03:05:34
216,wailua homesteads,22.0669,-159.378,26.24,81,75,8.23,US,2024-04-09 03:10:24
217,igboho,8.8333,3.75,25.03,80,95,3.37,NG,2024-04-09 03:10:24
218,perth,-31.9333,115.8333,23.91,48,0,8.75,AU,2024-04-09 03:07:46
219,uturoa,-16.7333,-151.4333,28.87,79,92,5.22,PF,2024-04-09 03:10:24
220,st. john's,47.5649,-52.7093,-0.68,93,100,10.28,CA,2024-04-09 03:09:07
221,puente alto,-33.6167,-70.5833,21.66,41,0,0.77,CL,2024-04-09 03:10:24
222,tarko-sale,64.9225,77.785,-11.34,80,65,4.13,RU,2024-04-09 03:10:25
223,isangel,-19.55,169.2667,28.38,73,22,5.36,VU,2024-04-09 03:10:25
224,tamanrasset,22.785,5.5228,23.95,10,1,4.63,DZ,2024-04-09 03:10:25
225,hoopstad,-27.8327,25.9083,11.01,66,0,2.69,ZA,2024-04-09 03:10:25
226,phan thiet,10.9333,108.1,32.52,49,73,7.27,VN,2024-04-09 03:10:25
227,miyako,39.6367,141.9525,7.86,93,100,4.6,JP,2024-04-09 03:10:25
228,aktobe,50.2797,57.2072,8.05,81,0,6.0,KZ,2024-04-09 03:10:25
229,vernon,50.2581,-119.2691,10.2,68,100,1.57,CA,2024-04-09 03:10:25
230,remire-montjoly,4.9167,-52.2667,26.02,94,75,1.54,GF,2024-04-09 03:10:26
231,murzuq,25.9155,13.9184,17.84,15,1,3.59,LY,2024-04-09 03:10:26
232,colby,39.3958,-101.0524,8.33,50,0,5.14,US,2024-04-09 03:10:26
233,orkney,-26.9802,26.6727,13.8,74,45,2.21,ZA,2024-04-09 03:10:26
234,ulsteinvik,62.3432,5.8487,10.5,76,97,4.15,NO,2024-04-09 03:10:26
235,peterhead,57.5058,-1.7981,7.22,97,100,4.17,GB,2024-04-09 03:10:26
236,manismata,-2.4667,111.0333,29.96,69,91,1.82,ID,2024-04-09 03:10:26
237,lompoc,34.6391,-120.4579,13.9,86,0,6.17,US,2024-04-09 03:08:46
238,freeport,40.6576,-73.5832,14.54,81,0,1.54,US,2024-04-09 03:07:48
239,yola,9.2,12.4833,29.68,45,61,2.78,NG,2024-04-09 03:10:27
240,motueka,-41.1333,173.0167,19.5,60,72,4.28,NZ,2024-04-09 03:10:27
241,sao joao da barra,-21.6403,-41.0511,25.29,84,94,5.12,BR,2024-04-09 03:10:27
242,san andres,12.5847,-81.7006,29.01,79,20,6.17,CO,2024-04-09 03:10:27
243,gewane,10.1664,40.6453,25.45,70,31,0.74,ET,2024-04-09 03:10:27
244,zag,46.9441,99.165,4.3,59,100,0.32,MN,2024-04-09 03:10:27
245,alesund,62.4723,6.1549,10.51,66,99,4.63,NO,2024-04-09 03:10:27
246,okha,53.5739,142.9478,-0.97,84,87,4.92,RU,2024-04-09 03:05:42
247,san pablo huixtepec,16.8333,-96.7667,22.92,54,38,1.07,MX,2024-04-09 03:10:28
248,batyrevo,55.0675,47.6111,6.73,93,70,3.04,RU,2024-04-09 03:10:28
249,al jawf,29.5,38.75,16.04,51,0,5.4,SA,2024-04-09 03:10:28
250,songkhla,6.8333,100.6667,31.03,56,59,3.58,TH,2024-04-09 03:10:28
251,funafuti,-8.5243,179.1942,33.0,75,40,3.09,TV,2024-04-09 03:10:28
252,severo-yeniseyskiy,60.3725,93.0408,-3.01,78,100,3.13,RU,2024-04-09 03:10:28
253,akbarabad,29.2464,52.7793,12.79,57,100,0.68,IR,2024-04-09 03:07:17
254,mugia,43.1041,-9.2179,11.06,64,10,5.81,ES,2024-04-09 03:10:28
255,pandan,14.0453,124.1694,29.75,70,94,4.58,PH,2024-04-09 03:10:28
256,ujae,8.9322,165.7642,27.69,82,100,9.61,MH,2024-04-09 03:10:29
257,jianshui,23.6363,102.8264,28.42,37,0,2.03,CN,2024-04-09 03:10:29
258,flying fish cove,-10.4217,105.6791,28.82,74,75,3.6,CX,2024-04-09 03:10:29
259,high river,50.5834,-113.8687,8.98,56,100,5.14,CA,2024-04-09 03:10:29
260,happy valley-goose bay,53.3168,-60.3315,-4.85,73,83,4.13,CA,2024-04-09 03:10:29
261,ribeira brava,32.65,-17.0667,18.17,77,35,0.92,PT,2024-04-09 03:10:29
262,sisimiut,66.9395,-53.6735,-9.79,87,49,4.0,GL,2024-04-09 03:10:29
263,les avirons,-21.2418,55.3394,21.05,64,0,2.57,RE,2024-04-09 03:10:29
264,dokkum,53.3222,5.997,14.43,89,100,6.17,NL,2024-04-09 03:08:50
265,nizhnesortymskiy,62.4397,71.7603,-7.61,85,100,4.52,RU,2024-04-09 03:10:29
266,sarmiento,-45.5882,-69.07,5.37,47,22,0.78,AR,2024-04-09 03:10:30
267,whitehorse,60.7161,-135.0538,2.83,78,100,2.6,CA,2024-04-09 03:10:30
268,broken hill,-31.95,141.4333,17.17,30,0,9.18,AU,2024-04-09 03:09:01
269,buncrana,55.1333,-7.45,6.57,89,100,7.92,IE,2024-04-09 03:10:30
270,lihue,21.9789,-159.3672,26.58,76,75,8.23,US,2024-04-09 03:10:30
271,puerto carreno,6.189,-67.4859,30.8,49,59,2.67,CO,2024-04-09 03:10:30
272,hithadhoo,-0.6,73.0833,29.12,72,100,2.14,MV,2024-04-09 03:10:30
273,bad homburg vor der hohe,50.2267,8.6196,17.69,73,100,0.88,DE,2024-04-09 03:10:30
274,yuzhno-kurilsk,44.0306,145.8556,1.32,98,100,10.55,RU,2024-04-09 03:10:31
275,wynyard,-41.0,145.7167,13.92,48,53,5.52,AU,2024-04-09 03:10:31
276,torghay,49.6339,63.4981,5.9,72,87,5.6,KZ,2024-04-09 03:10:31
277,port elizabeth,-33.918,25.5701,17.95,94,94,0.45,ZA,2024-04-09 03:10:31
278,daru,-9.0763,143.2092,30.47,68,100,1.72,PG,2024-04-09 03:10:31
279,lyubim,58.3625,40.6843,5.0,94,97,2.26,RU,2024-04-09 03:10:31
280,kampong chhnang,12.1667,104.55,35.92,42,34,4.84,KH,2024-04-09 03:10:31
281,horta,38.5333,-28.6333,16.68,97,88,7.15,PT,2024-04-09 03:10:31
282,touros,-5.1989,-35.4608,25.36,89,98,1.59,BR,2024-04-09 03:10:31
283,santa terezinha,-29.9002,-50.0904,22.22,88,0,1.92,BR,2024-04-09 03:10:32
284,smithers,54.7804,-127.1743,2.15,74,12,1.81,CA,2024-04-09 03:10:32
285,san antonio de pale,-1.4014,5.6325,27.96,77,100,3.14,GQ,2024-04-09 03:10:32
286,jati,24.3539,68.2671,30.04,20,4,5.85,PK,2024-04-09 03:10:32
287,keetmanshoop,-26.5833,18.1333,11.33,76,0,2.59,NA,2024-04-09 03:10:32
288,puerto cabezas,14.0351,-83.3888,27.25,74,100,3.27,NI,2024-04-09 03:10:32
289,upata,8.0086,-62.3989,26.22,71,99,2.96,VE,2024-04-09 03:10:32
290,haiku-pauwela,20.9219,-156.3051,25.12,71,20,10.8,US,2024-04-09 03:10:32
291,northam,51.0333,-4.2167,8.7,95,100,16.25,GB,2024-04-09 03:10:32
292,irkutsk,52.2978,104.2964,6.43,52,0,2.0,RU,2024-04-09 03:10:33
293,kudahuvadhoo,2.6708,72.8944,28.89,70,83,1.75,MV,2024-04-09 03:10:33
294,xichang,27.8964,102.2634,20.35,50,25,1.71,CN,2024-04-09 03:10:33
295,kanniyakumari,8.0833,77.5667,30.04,66,78,5.17,IN,2024-04-09 03:09:10
296,tuncurry,-32.1667,152.5,25.75,52,48,2.24,AU,2024-04-09 03:10:33
297,mahanoro,-19.9,48.8,23.72,86,21,0.87,MG,2024-04-09 03:10:33
298,port lincoln,-34.7333,135.8667,16.47,51,83,6.27,AU,2024-04-09 03:10:33
299,aioun,16.6614,-9.6149,27.43,26,0,7.87,MR,2024-04-09 03:10:34
300,nuuk,64.1835,-51.7216,-3.66,80,20,4.12,GL,2024-04-09 03:06:00
301,mount pearl,47.5166,-52.7813,-1.14,94,100,8.23,CA,2024-04-09 03:07:10
302,zhanaozen,43.3,52.8,11.79,50,63,3.52,KZ,2024-04-09 03:10:34
303,shangmei,27.7428,111.2956,19.36,70,96,0.8,CN,2024-04-09 03:10:34
304,childress,34.4264,-100.204,17.14,39,0,7.2,US,2024-04-09 03:10:34
305,griffith,41.5284,-87.4237,17.96,58,0,2.57,US,2024-04-09 03:07:40
306,betio village,1.358,172.9211,31.02,82,97,6.14,KI,2024-04-09 03:10:34
307,revelstoke,50.9832,-118.2023,5.99,99,100,2.08,CA,2024-04-09 03:10:34
308,north bend,43.4065,-124.2243,12.37,87,100,3.6,US,2024-04-09 03:10:34
309,terrace,54.5163,-128.6035,4.01,100,100,1.39,CA,2024-04-09 03:10:34
310,mizque,-17.941,-65.3402,17.86,81,100,1.2,BO,2024-04-09 03:10:35
311,ambon,-3.6954,128.1814,31.08,74,40,3.09,ID,2024-04-09 03:10:09
312,saint-pierre,-21.3393,55.4781,22.82,64,0,2.57,RE,2024-04-09 03:10:35
313,tumut,-35.3,148.2167,12.62,82,100,2.2,AU,2024-04-09 03:10:35
314,ebon,4.582,168.6964,27.04,85,100,8.34,MH,2024-04-09 03:10:35
315,dwarka,22.2394,68.9678,26.53,70,5,3.05,IN,2024-04-09 03:10:35
316,bu'aale,1.0833,42.5833,26.17,86,99,0.98,SO,2024-04-09 03:10:35
317,ketchikan,55.3422,-131.6461,6.26,75,100,0.0,US,2024-04-09 03:10:35
318,burang,30.25,81.1667,-8.01,53,2,0.49,CN,2024-04-09 03:10:35
319,dodge city,37.7528,-100.0171,11.23,44,0,1.54,US,2024-04-09 03:06:45
320,cabedelo,-6.9811,-34.8339,27.37,80,100,2.38,BR,2024-04-09 03:10:36
321,khandyga,62.6667,135.6,-2.81,89,100,1.42,RU,2024-04-09 03:10:36
322,hammerfest,70.6634,23.6821,-0.75,93,100,1.03,NO,2024-04-09 03:10:36
323,ta`u,-14.2336,-169.5144,29.29,77,90,4.99,AS,2024-04-09 03:10:36
324,colac,-38.3333,143.5833,14.54,50,72,4.74,AU,2024-04-09 03:10:36
325,vila velha,-20.3297,-40.2925,23.86,91,20,2.06,BR,2024-04-09 03:06:12
326,gadani,25.1185,66.7299,25.12,65,35,2.41,PK,2024-04-09 03:10:36
327,la punta,-33.1837,-66.3127,17.19,59,3,0.82,AR,2024-04-09 03:10:36
328,luderitz,-26.6481,15.1594,13.99,88,2,4.39,NA,2024-04-09 03:10:36
329,vilyuysk,63.7553,121.6247,-7.22,81,26,1.34,RU,2024-04-09 03:10:37
330,nemuro,43.3236,145.575,0.79,98,100,11.63,JP,2024-04-09 03:10:37
331,constitucion,-35.3333,-72.4167,14.3,82,0,3.52,CL,2024-04-09 03:08:59
332,magadan,59.5667,150.8,-3.04,89,99,2.29,RU,2024-04-09 03:10:37
333,turkmenbasy,40.0222,52.9552,13.58,83,100,5.91,TM,2024-04-09 03:10:37
334,polyarnyy,69.1989,33.4478,-3.96,95,100,3.56,RU,2024-04-09 03:10:37
335,tidjikja,18.5564,-11.4271,22.33,25,0,6.81,MR,2024-04-09 03:10:37
336,qamdo,31.1667,97.2333,4.57,26,79,3.79,CN,2024-04-09 03:10:37
337,eyl,7.9803,49.8164,27.61,69,100,4.37,SO,2024-04-09 03:10:37
338,tongouson,5.0214,120.1328,28.48,74,80,1.45,PH,2024-04-09 03:10:37
339,luebo,-5.35,21.4167,20.41,97,72,0.36,CD,2024-04-09 03:10:38
340,coquimbo,-29.9533,-71.3436,16.08,82,3,1.22,CL,2024-04-09 03:10:38
341,tofol,5.3248,163.0078,29.88,79,100,4.12,FM,2024-04-09 03:10:38
342,ji'an,27.1172,114.9793,19.17,78,94,2.6,CN,2024-04-09 03:10:38
343,alice springs,-23.7,133.8833,22.9,31,10,7.72,AU,2024-04-09 03:06:04
344,geraldton,-28.7667,114.6,30.23,23,13,11.32,AU,2024-04-09 03:10:38
345,waingapu,-9.6567,120.2641,29.34,73,100,1.59,ID,2024-04-09 03:10:38
346,beyneu,45.3167,55.2,11.82,56,61,1.68,KZ,2024-04-09 03:10:38
347,bamboo flat,11.7,92.7167,30.13,65,15,1.99,IN,2024-04-09 03:10:38
348,komatipoort,-25.4332,31.9548,20.58,91,100,1.61,ZA,2024-04-09 03:10:38
349,brisas de zicatela,15.8369,-97.0419,26.29,89,0,2.06,MX,2024-04-09 03:10:39
350,kunyang,27.6658,120.5658,16.86,69,98,1.61,CN,2024-04-09 03:10:39
351,aleg,17.0481,-13.9209,25.32,18,0,7.05,MR,2024-04-09 03:10:39
352,midland,31.9974,-102.0779,22.37,39,0,8.23,US,2024-04-09 03:09:18
353,castillos,-34.1667,-53.8333,18.56,97,19,0.73,UY,2024-04-09 03:10:39
354,umbauba,-11.3833,-37.6578,23.24,98,11,0.33,BR,2024-04-09 03:10:39
355,kokopo,-4.352,152.2633,28.76,73,94,3.08,PG,2024-04-09 03:10:39
356,saint-louis du nord,19.9333,-72.7167,24.98,82,99,9.35,HT,2024-04-09 03:10:40
357,rio grande,-32.035,-52.0986,18.3,91,7,2.65,BR,2024-04-09 03:07:02
358,dalandzadgad,43.5708,104.425,10.77,31,2,4.05,MN,2024-04-09 03:06:00
359,lincheng,19.9078,109.6858,27.87,74,88,0.21,CN,2024-04-09 03:05:55
360,mahgawan,26.5,78.6042,31.15,9,100,2.41,IN,2024-04-09 03:10:40
361,huarmey,-10.0681,-78.1522,23.01,80,91,3.8,PE,2024-04-09 03:10:40
362,chaoyang,41.5703,120.4586,10.55,12,100,2.33,CN,2024-04-09 03:10:40
363,aras-asan,8.8908,126.3033,28.24,73,100,2.55,PH,2024-04-09 03:10:40
364,sorong,-0.8833,131.25,28.42,77,96,3.05,ID,2024-04-09 03:10:40
365,morant bay,17.8815,-76.4093,28.79,87,57,6.28,JM,2024-04-09 03:10:41
366,aberglasslyn,-32.7,151.5333,24.49,37,100,3.6,AU,2024-04-09 03:10:41
367,osh,40.5151,72.8083,15.36,44,0,3.0,KG,2024-04-09 03:10:06
368,cambria,35.5641,-121.0808,17.41,77,0,3.47,US,2024-04-09 03:10:41
369,igarka,67.4667,86.5833,-9.99,89,100,5.36,RU,2024-04-09 03:10:41
370,nova vicosa,-17.8919,-39.3719,25.26,79,93,2.34,BR,2024-04-09 03:10:41
371,argostolion,38.1811,20.489,15.97,38,6,1.42,GR,2024-04-09 03:10:41
372,namibe,-15.1961,12.1522,21.6,81,100,1.57,AO,2024-04-09 03:10:41
373,hamilton,39.1834,-84.5333,18.43,82,20,3.6,US,2024-04-09 03:10:41
374,belyye vody,42.4167,69.8333,9.62,97,100,2.61,KZ,2024-04-09 03:10:41
375,thala,35.5724,8.6703,18.03,21,100,2.65,TN,2024-04-09 03:09:17
376,lorengau,-2.0226,147.2712,29.0,81,77,2.94,PG,2024-04-09 03:10:42
377,progreso,21.2833,-89.6667,31.06,60,0,5.46,MX,2024-04-09 03:10:42
378,gazojak,41.1875,61.4036,12.24,47,76,5.03,TM,2024-04-09 03:10:42
379,harper,4.375,-7.7169,27.6,82,58,2.8,LR,2024-04-09 03:10:42
380,byron bay,-28.65,153.6167,27.06,57,100,2.54,AU,2024-04-09 03:10:42
381,iwaki,37.05,140.8833,18.4,93,100,8.61,JP,2024-04-09 03:10:42
382,chernyshevsk,52.5243,117.0174,8.44,34,5,4.48,RU,2024-04-09 03:10:42
383,yigo village,13.5361,144.8886,31.62,69,75,6.69,GU,2024-04-09 03:10:42
384,staroyur'yevo,53.3161,40.7081,11.15,87,100,2.57,RU,2024-04-09 03:10:42
385,filipstad,59.7124,14.1683,4.84,95,91,1.18,SE,2024-04-09 03:10:42
386,gereida,11.2811,25.1414,23.54,14,41,4.53,SD,2024-04-09 03:10:43
387,egilsstadir,65.2653,-14.3948,-0.39,98,100,3.57,IS,2024-04-09 03:10:43
388,road town,18.4167,-64.6167,25.29,81,44,8.21,VG,2024-04-09 03:10:43
389,gisborne,-38.6533,178.0042,20.55,61,0,4.47,NZ,2024-04-09 03:08:28
390,menaka,15.9182,2.4022,30.64,9,79,2.32,ML,2024-04-09 03:10:43
391,ust'-kulom,61.6864,53.6902,-6.64,91,69,2.08,RU,2024-04-09 03:10:43
392,isola di capo rizzuto,38.96,17.0933,16.77,79,35,4.51,IT,2024-04-09 03:10:43
393,gadzhiyevo,69.2551,33.3362,-3.84,96,100,3.45,RU,2024-04-09 03:10:43
394,archangelos,36.2149,28.1149,14.62,69,11,1.93,GR,2024-04-09 03:10:43
395,pisco,-13.7,-76.2167,22.03,83,99,4.63,PE,2024-04-09 03:10:43
396,timra,62.487,17.3257,-1.18,100,100,1.03,SE,2024-04-09 03:10:44
397,lazaro cardenas,17.9583,-102.2,22.96,84,100,2.39,MX,2024-04-09 03:10:44
398,agat village,13.3886,144.6585,32.52,71,40,6.69,GU,2024-04-09 03:10:44
399,san patricio,28.017,-97.5169,24.53,93,100,7.07,US,2024-04-09 03:10:44
400,chania,35.5122,24.0156,15.78,77,40,2.57,GR,2024-04-09 03:10:44
401,hadibu,12.65,54.0333,26.46,74,89,1.77,YE,2024-04-09 03:10:44
402,kawalu,-7.3817,108.2082,28.15,74,100,1.74,ID,2024-04-09 03:10:44
403,sona,45.4388,10.8255,14.75,94,0,1.03,IT,2024-04-09 03:10:44
404,kruisfontein,-34.0033,24.7314,16.6,93,100,4.8,ZA,2024-04-09 03:10:44
405,machico,32.7,-16.7667,18.17,83,75,6.17,PT,2024-04-09 03:10:44
406,minot air force base,48.4209,-101.3391,9.1,65,40,5.14,US,2024-04-09 03:10:45
407,bojnurd,37.4747,57.329,9.97,87,75,2.06,IR,2024-04-09 03:10:45
408,nova olimpia,-14.7972,-57.2881,24.06,93,100,1.33,BR,2024-04-09 03:08:06
409,kaihua,23.3687,104.28,22.42,61,89,5.59,CN,2024-04-09 03:10:45
410,reggane,26.7158,0.1714,29.75,9,0,2.55,DZ,2024-04-09 03:10:45
411,primero de mayo,-32.2552,-58.4228,21.42,84,100,2.07,AR,2024-04-09 03:10:45
412,akrehamn,59.2667,5.1833,9.01,93,100,5.66,NO,2024-04-09 03:10:45
413,itaituba,-4.2761,-55.9836,23.64,99,100,0.3,BR,2024-04-09 03:10:45
414,usogorsk,63.4106,48.6872,-15.19,100,89,2.14,RU,2024-04-09 03:10:45
415,mersa matruh,31.3525,27.2453,16.41,69,1,6.39,EG,2024-04-09 03:10:45
416,aldama,22.9167,-98.0667,25.83,92,11,2.44,MX,2024-04-09 03:06:14
417,ringkobing,56.0901,8.244,10.01,94,100,4.82,DK,2024-04-09 03:10:46
418,kaka,37.3482,59.6143,16.92,52,42,3.7,TM,2024-04-09 03:10:46
419,baiyin,36.5583,104.2081,12.26,38,100,4.08,CN,2024-04-09 03:10:46
420,lib,8.3122,167.3766,27.53,81,99,10.06,MH,2024-04-09 03:10:46
421,khodzha-maston,38.7446,68.627,9.68,63,100,4.53,TJ,2024-04-09 03:10:46
422,adam,22.3756,57.5233,25.3,55,25,1.46,OM,2024-04-09 03:10:46
423,kolonia,50.9333,6.95,17.76,69,0,3.09,DE,2024-04-09 03:10:19
424,sevastopol,44.6,33.5333,13.37,55,5,2.88,UA,2024-04-09 03:10:10
425,kiunga,-6.1219,141.2906,25.53,88,100,0.79,PG,2024-04-09 03:10:47
426,mpika,-11.8343,31.4529,16.98,99,97,1.93,ZM,2024-04-09 03:10:47
427,luanda,-8.8368,13.2343,25.38,86,73,1.77,AO,2024-04-09 03:08:10
428,nonsan,36.2039,127.0847,18.78,46,0,3.36,KR,2024-04-09 03:10:47
429,nogliki,51.8333,143.1667,-3.14,94,100,3.13,RU,2024-04-09 03:10:47
430,cole harbour,44.6724,-63.4751,6.1,61,59,1.79,CA,2024-04-09 03:10:47
431,shimoda,34.6667,138.95,20.61,95,100,14.84,JP,2024-04-09 03:10:34
432,akdepe,42.0551,59.3788,12.52,51,62,1.95,TM,2024-04-09 03:10:47
433,mazagao,-0.115,-51.2894,26.03,99,100,1.07,BR,2024-04-09 03:10:48
434,tostado,-29.232,-61.7692,18.32,86,0,3.36,AR,2024-04-09 03:10:48
435,antonio enes,-16.2325,39.9086,23.45,92,35,2.49,MZ,2024-04-09 03:10:48
436,guerrero,17.6667,-100.0,21.63,52,27,2.98,MX,2024-04-09 03:10:48
437,pionerskiy,54.9508,20.2275,13.97,93,63,5.32,RU,2024-04-09 03:10:48
438,la'ie,21.6477,-157.9253,25.98,70,4,4.02,US,2024-04-09 03:10:48
439,al burayqah,30.4062,19.5739,15.21,58,0,3.85,LY,2024-04-09 03:10:48
440,jobner,26.9667,75.3833,33.68,10,75,5.08,IN,2024-04-09 03:10:48
441,marsabit,2.3284,37.9899,19.23,84,100,3.28,KE,2024-04-09 03:10:48
442,karatsu,33.4425,129.9697,18.92,45,68,1.34,JP,2024-04-09 03:05:57
443,sinop,41.7711,34.8709,7.65,81,12,1.08,TR,2024-04-09 03:07:03
444,uray,60.1247,64.7758,-3.4,98,100,1.34,RU,2024-04-09 03:06:23
445,kavaratti,10.5669,72.642,29.33,62,43,2.22,IN,2024-04-09 03:10:49
446,ndele,8.4109,20.6473,25.63,48,52,1.49,CF,2024-04-09 03:10:49
447,the pas,53.8251,-101.2541,5.0,74,0,3.01,CA,2024-04-09 03:10:49
448,kailua-kona,19.6406,-155.9956,25.98,80,100,2.57,US,2024-04-09 03:09:14
449,turbat,26.0023,63.044,26.78,31,82,1.03,PK,2024-04-09 03:10:49
450,nyurba,63.2842,118.3319,-4.9,77,37,1.58,RU,2024-04-09 03:10:49
451,kununurra,-15.7667,128.7333,31.99,31,89,6.69,AU,2024-04-09 03:07:19
452,dunedin,-45.8742,170.5036,18.78,52,100,4.47,NZ,2024-04-09 03:08:16
453,toliara,-23.35,43.6667,22.56,79,57,2.49,MG,2024-04-09 03:10:49
454,rio do sul,-27.2142,-49.6431,21.33,100,26,0.38,BR,2024-04-09 03:10:50
455,emerald,-23.5333,148.1667,31.3,35,27,5.52,AU,2024-04-09 03:07:16
456,opuwo,-18.0607,13.84,17.24,49,4,2.19,NA,2024-04-09 03:10:50
457,impfondo,1.6381,18.0667,22.42,83,39,0.89,CG,2024-04-09 03:10:50
458,jalalabad,34.4265,70.4515,23.85,17,6,0.63,AF,2024-04-09 03:10:50
459,lycksele,64.5954,18.6735,-5.32,93,6,0.0,SE,2024-04-09 03:08:40
460,la ronge,55.1001,-105.2842,4.14,83,100,0.64,CA,2024-04-09 03:10:50
461,georgetown,5.4112,100.3354,33.3,66,20,3.09,MY,2024-04-09 03:09:42
462,kattivakkam,13.2167,80.3167,31.17,61,93,4.13,IN,2024-04-09 03:10:50
463,oriximina,-1.7656,-55.8661,24.57,94,100,1.16,BR,2024-04-09 03:10:50
464,new norfolk,-42.7826,147.0587,14.72,50,78,4.1,AU,2024-04-09 03:10:50
465,priozersk,61.0393,30.1291,5.56,88,96,2.61,RU,2024-04-09 03:10:51
466,tosontsengel,48.7567,98.2839,4.91,65,94,1.96,MN,2024-04-09 03:10:51
467,guercif,34.2257,-3.3536,14.75,73,89,6.09,MA,2024-04-09 03:08:50
468,nadi,-17.8,177.4167,29.0,74,100,2.06,FJ,2024-04-09 03:06:06
469,flin flon,54.7682,-101.865,6.63,61,2,2.19,CA,2024-04-09 03:10:51
470,pangody,65.85,74.4859,-16.64,90,24,4.77,RU,2024-04-09 03:10:51
471,ulladulla,-35.35,150.4667,13.76,89,100,7.85,AU,2024-04-09 03:10:51
472,um jar al gharbiyya,13.8013,32.4078,24.53,12,53,4.54,SD,2024-04-09 03:10:51
473,farkhor,37.4922,69.4036,16.4,46,100,2.14,TJ,2024-04-09 03:09:17
474,pont rouge,48.8833,-72.0825,1.53,85,5,2.57,CA,2024-04-09 03:10:52
475,lata,40.1629,-8.3327,6.15,90,0,1.57,PT,2024-04-09 03:10:52
476,metlili chaamba,32.2667,3.6333,22.65,12,100,3.91,DZ,2024-04-09 03:10:52
477,nar'yan-mar,67.6713,53.087,-19.35,100,100,2.09,RU,2024-04-09 03:10:52
478,tazacorte,28.629,-17.9293,18.54,70,0,8.23,ES,2024-04-09 03:10:52
479,saalfelden am steinernen meer,47.4268,12.848,13.94,68,37,4.19,AT,2024-04-09 03:10:52
480,acarau,-2.8856,-40.12,24.7,88,100,3.17,BR,2024-04-09 03:10:52
481,ariquemes,-9.9133,-63.0408,23.38,98,92,0.79,BR,2024-04-09 03:10:52
482,qarah bagh,34.9402,61.7759,13.73,42,75,5.74,AF,2024-04-09 03:10:52
483,dzilam gonzalez,21.2833,-88.9333,26.8,62,0,4.38,MX,2024-04-09 03:10:53
484,howard springs,-12.497,131.047,32.68,56,100,3.91,AU,2024-04-09 03:10:53
485,bochil,16.9833,-92.9167,25.98,43,96,1.03,MX,2024-04-09 03:10:53
486,magistral'nyy,56.1725,107.4458,-5.35,82,68,0.95,RU,2024-04-09 03:10:53
487,guane,22.2025,-84.0875,20.78,75,0,2.42,CU,2024-04-09 03:10:53
488,ploneour-lanvern,47.9,-4.2833,8.16,81,40,7.72,FR,2024-04-09 03:10:53
489,nelson bay,-32.7167,152.15,24.03,51,100,4.02,AU,2024-04-09 03:10:53
490,lincoln,40.8,-96.667,11.26,66,42,2.24,US,2024-04-09 03:08:13
491,kushiro,42.975,144.3747,1.42,95,100,9.92,JP,2024-04-09 03:10:54
492,isfara,40.1265,70.6253,17.86,32,100,3.49,TJ,2024-04-09 03:10:54
493,selfoss,63.9331,-20.9971,1.14,57,100,7.11,IS,2024-04-09 03:10:54
494,bubaque,11.2833,-15.8333,24.86,69,95,4.77,GW,2024-04-09 03:10:54
495,puerto lempira,15.2667,-83.7667,25.7,85,100,3.52,HN,2024-04-09 03:10:54
496,podborany,50.2294,13.4119,14.77,96,42,2.03,CZ,2024-04-09 03:10:54
497,san borja,-14.8167,-66.85,24.32,97,100,1.17,BO,2024-04-09 03:10:54
498,douglas,41.3,-96.167,11.49,65,0,5.14,US,2024-04-09 03:10:54
499,gorgan,36.8387,54.4348,11.98,94,100,0.0,IR,2024-04-09 03:10:54
500,miyaly,48.8844,53.7836,10.4,66,41,4.18,KZ,2024-04-09 03:10:55
501,sayalkudi,9.1833,78.45,30.29,56,54,4.8,IN,2024-04-09 03:10:55
502,n'zeto,-7.2312,12.8666,25.85,87,87,1.55,AO,2024-04-09 03:10:55
503,buka,40.8108,69.1986,14.79,67,100,5.34,UZ,2024-04-09 03:10:55
504,ghadamis,30.1337,9.5007,22.83,8,100,3.6,LY,2024-04-09 03:10:55
505,santana,-0.0583,-51.1817,26.1,89,75,2.06,BR,2024-04-09 03:10:55
506,san luis de la loma,17.2706,-100.8939,24.66,74,75,3.69,MX,2024-04-09 03:10:55
507,tralee,52.2704,-9.7026,6.96,68,7,8.72,IE,2024-04-09 03:09:28
508,blackfoot,43.1905,-112.345,6.45,59,51,4.28,US,2024-04-09 03:10:55
509,caleta de carquin,-11.0925,-77.6267,22.04,83,99,3.93,PE,2024-04-09 03:10:56
510,tanjung pandan,-2.75,107.65,28.63,79,100,2.1,ID,2024-04-09 03:10:56
511,minas de marcona,-15.2119,-75.1103,17.48,86,87,4.8,PE,2024-04-09 03:10:56
512,mainaguri,26.5667,88.8167,29.36,32,32,2.84,IN,2024-04-09 03:10:56
513,sao tome,0.3365,6.7273,27.57,78,100,1.7,ST,2024-04-09 03:10:56
514,paracuru,-3.41,-39.0306,26.17,94,100,4.09,BR,2024-04-09 03:10:56
515,cacheu,12.2706,-16.1658,23.81,41,9,3.35,GW,2024-04-09 03:10:56
516,nueva gerona,21.8833,-82.8,24.48,71,1,4.3,CU,2024-04-09 03:10:56
517,sakakah,29.9697,40.2064,15.76,20,0,2.71,SA,2024-04-09 03:09:16
518,grants,35.1473,-107.8514,9.13,27,100,3.09,US,2024-04-09 03:06:20
519,jatai,-17.8814,-51.7144,20.96,93,100,1.76,BR,2024-04-09 03:10:57
520,mejit,10.2753,170.8646,26.78,81,100,10.66,MH,2024-04-09 03:10:57
521,kasempa,-13.4584,25.8338,17.58,98,98,1.95,ZM,2024-04-09 03:10:57
522,callaway,30.153,-85.5699,19.39,70,0,2.06,US,2024-04-09 03:10:57
523,tadjourah,12.0,42.5,25.33,71,59,2.14,DJ,2024-04-09 03:10:57
524,coron,11.9986,120.2043,31.39,59,100,3.92,PH,2024-04-09 03:10:57
525,trairi,-3.2778,-39.2689,24.52,95,100,3.22,BR,2024-04-09 03:10:57
526,nikolayevsk-on-amure,53.1406,140.73,-0.44,87,99,1.79,RU,2024-04-09 03:10:57
527,al abyar,32.19,20.5965,12.37,81,0,6.17,LY,2024-04-09 03:10:57
528,tefe,-3.3542,-64.7114,24.83,86,99,0.54,BR,2024-04-09 03:10:57
529,tuljapur,18.0,76.0833,29.17,39,0,8.15,IN,2024-04-09 03:10:58
530,cabo san lucas,22.8909,-109.9124,21.61,75,40,8.75,MX,2024-04-09 03:06:40
531,chinde,26.8418,88.0763,23.32,24,0,2.93,NP,2024-04-09 03:10:58
532,vadso,70.0744,29.7487,-0.91,86,75,2.06,NO,2024-04-09 03:10:58
533,sandnessjoen,66.0217,12.6316,3.29,89,100,6.0,NO,2024-04-09 03:10:58
534,salinopolis,-0.6136,-47.3561,25.61,90,99,1.48,BR,2024-04-09 03:10:58
535,petropavlovsk-kamchatsky,53.0452,158.6483,2.47,82,75,2.0,RU,2024-04-09 03:10:58
536,spring creek,40.7266,-115.5859,3.83,54,21,2.73,US,2024-04-09 03:09:53
537,talsi,57.2456,22.5814,9.04,94,71,1.78,LV,2024-04-09 03:10:58
538,kristiansund,63.1115,7.732,6.36,52,100,1.03,NO,2024-04-09 03:10:59
539,manacapuru,-3.2997,-60.6206,25.67,91,100,2.64,BR,2024-04-09 03:10:59
540,kirakira,-10.4544,161.9205,30.42,72,54,3.28,SB,2024-04-09 03:10:59
541,santona,43.4439,-3.4576,11.15,82,28,8.96,ES,2024-04-09 03:10:59
542,naze,28.3667,129.4833,21.51,63,82,11.3,JP,2024-04-09 03:06:07
543,tham phannara,8.4204,99.3952,35.4,40,98,1.57,TH,2024-04-09 03:10:59
544,fortuna,40.5982,-124.1573,11.19,90,100,4.12,US,2024-04-09 03:10:59
545,youkounkoun,12.5333,-13.1333,27.2,51,51,3.32,GN,2024-04-09 03:10:59
546,novo aripuana,-5.1206,-60.3797,24.01,99,99,1.25,BR,2024-04-09 03:10:59
547,mari-turek,56.7895,49.6235,3.05,97,86,3.21,RU,2024-04-09 03:11:00
548,weatherford,32.7593,-97.7972,21.59,83,0,0.89,US,2024-04-09 03:09:33
549,onguday,50.75,86.15,7.04,62,100,2.12,RU,2024-04-09 03:11:00
550,yanji,42.9075,129.5078,8.47,14,0,1.44,CN,2024-04-09 03:11:00
551,port augusta,-32.5,137.7667,19.09,43,3,8.65,AU,2024-04-09 03:11:00
552,khilok,51.3674,110.4676,5.91,36,11,3.93,RU,2024-04-09 03:11:00
553,andreapol',56.6513,32.2664,8.5,94,92,0.73,RU,2024-04-09 03:11:00
554,lanxi,29.2195,119.477,19.02,59,67,3.16,CN,2024-04-09 03:11:00
555,axim,4.8699,-2.2405,27.56,85,100,2.38,GH,2024-04-09 03:11:00
556,taro,-8.3862,115.28,27.0,58,100,0.58,ID,2024-04-09 03:11:01
557,fada,9.5667,8.3,22.7,82,99,1.71,NG,2024-04-09 03:11:01
558,serchhip,23.3,92.8333,31.69,30,94,0.38,IN,2024-04-09 03:11:01
559,lethbridge,49.7,-112.8186,6.47,51,18,10.21,CA,2024-04-09 03:11:01
560,harnosand,62.6323,17.9379,-1.0,99,100,2.41,SE,2024-04-09 03:11:01
561,ponta delgada,37.7333,-25.6667,18.44,100,75,3.6,PT,2024-04-09 03:11:01
562,supia,5.453,-75.6507,21.71,95,100,0.41,CO,2024-04-09 03:11:01
563,arteche,12.2645,125.4048,29.83,64,26,3.64,PH,2024-04-09 03:11:01
564,mokhsogollokh,61.4681,128.9203,-2.1,94,100,1.01,RU,2024-04-09 03:11:01
565,tot'ma,59.9747,42.7642,4.1,96,100,2.71,RU,2024-04-09 03:11:01
566,sinjar,36.3209,41.8754,16.88,59,38,4.05,IQ,2024-04-09 03:11:02
567,queenstown,-31.8976,26.8753,11.81,83,24,2.34,ZA,2024-04-09 03:11:02
568,ataq,14.5377,46.8319,20.59,67,65,4.1,YE,2024-04-09 03:11:02
569,khorugh,37.4897,71.553,-5.43,56,80,0.71,TJ,2024-04-09 03:11:02
570,homer,59.6425,-151.5483,2.94,57,20,4.12,US,2024-04-09 03:11:02
571,yarmouth,41.7057,-70.2286,10.55,69,0,4.47,US,2024-04-09 03:09:48
572,luumaki,60.9262,27.5814,5.18,98,100,1.77,FI,2024-04-09 03:11:03
573,xianning,29.8833,114.2167,19.19,69,73,4.95,CN,2024-04-09 03:11:03
574,knyaze-volkonskoye,48.4642,135.4567,6.19,40,10,5.36,RU,2024-04-09 03:11:03
575,fedorovskiy,45.0972,40.9517,8.91,53,1,4.7,RU,2024-04-09 03:11:03
576,neiafu,-18.65,-173.9833,28.38,83,75,4.12,TO,2024-04-09 03:11:03
577,monterey,36.2505,-121.2516,12.32,65,0,3.52,US,2024-04-09 03:11:03
578,chadan,51.2833,91.5833,8.56,54,64,0.63,RU,2024-04-09 03:11:04
579,cill airne,52.05,-9.5167,6.17,70,8,8.64,IE,2024-04-09 03:11:04
580,kulhudhuffushi,6.6221,73.07,28.81,74,57,2.09,MV,2024-04-09 03:11:04
581,senador jose porfirio,-2.5908,-51.9542,23.96,97,100,1.79,BR,2024-04-09 03:11:04
